country,city,aqi,aqi_category,co,co_aqi_category,o3,ozone_aqi_category,no2,no2_aqi_category,pm25,pm2.5_aqi_category,lat,lon,cluster,point_type,severity,hotspot_rank
India,Anjangaon,114,Unhealthy for Sensitive Groups,1,Good,38,Good,0,Good,114,Unhealthy for Sensitive Groups,21.15,77.28,-1,noise,NOISE,-1.0
Dominican Republic,Villa Altagracia,114,Unhealthy for Sensitive Groups,1,Good,29,Good,2,Good,114,Unhealthy for Sensitive Groups,18.6667,-70.1667,8,border,LOW,9.0
Pakistan,Daulatpur,114,Unhealthy for Sensitive Groups,1,Good,25,Good,2,Good,114,Unhealthy for Sensitive Groups,25.3682,87.8983,-1,noise,NOISE,-1.0
Russian Federation,Yasnyy,114,Unhealthy for Sensitive Groups,1,Good,33,Good,0,Good,114,Unhealthy for Sensitive Groups,51.05,59.9667,-1,noise,NOISE,-1.0
Philippines,Quezon,113,Unhealthy for Sensitive Groups,1,Good,27,Good,2,Good,113,Unhealthy for Sensitive Groups,17.3119,121.605,0,core,LOW,83.0
Philippines,Quezon,113,Unhealthy for Sensitive Groups,1,Good,27,Good,2,Good,113,Unhealthy for Sensitive Groups,15.5542,120.8111,0,core,LOW,83.0
Albania,Burrel,113,Unhealthy for Sensitive Groups,1,Good,43,Good,0,Good,113,Unhealthy for Sensitive Groups,41.6083,20.0111,1,core,LOW,146.0
Philippines,Quezon,113,Unhealthy for Sensitive Groups,1,Good,27,Good,2,Good,113,Unhealthy for Sensitive Groups,9.235,117.9967,-1,noise,NOISE,-1.0
Mali,Kayes,113,Unhealthy for Sensitive Groups,1,Good,28,Good,1,Good,113,Unhealthy for Sensitive Groups,14.45,-11.4167,-1,noise,NOISE,-1.0
Mali,Kayes,113,Unhealthy for Sensitive Groups,1,Good,28,Good,1,Good,113,Unhealthy for Sensitive Groups,-4.1681,13.2939,-1,noise,NOISE,-1.0
United States of America,Vega Alta,113,Unhealthy for Sensitive Groups,1,Good,24,Good,0,Good,113,Unhealthy for Sensitive Groups,18.4151,-66.3211,2,core,LOW,33.0
Philippines,Quezon,113,Unhealthy for Sensitive Groups,1,Good,27,Good,2,Good,113,Unhealthy for Sensitive Groups,7.7306,125.1,3,core,LOW,113.0
Switzerland,Wetzikon,113,Unhealthy for Sensitive Groups,1,Good,28,Good,2,Good,113,Unhealthy for Sensitive Groups,47.3167,8.8,1,core,LOW,146.0
Switzerland,Thalwil,113,Unhealthy for Sensitive Groups,1,Good,27,Good,3,Good,113,Unhealthy for Sensitive Groups,47.2833,8.5667,1,core,LOW,146.0
Philippines,Quezon,113,Unhealthy for Sensitive Groups,1,Good,27,Good,2,Good,113,Unhealthy for Sensitive Groups,16.4894,121.2639,0,core,LOW,83.0
Philippines,Quezon,113,Unhealthy for Sensitive Groups,1,Good,27,Good,2,Good,113,Unhealthy for Sensitive Groups,14.05,122.1333,0,core,LOW,83.0
Venezuela (Bolivarian Republic of),Porlamar,113,Unhealthy for Sensitive Groups,1,Good,20,Good,1,Good,113,Unhealthy for Sensitive Groups,10.9556,-63.8478,-1,noise,NOISE,-1.0
Senegal,Matam,113,Unhealthy for Sensitive Groups,1,Good,15,Good,2,Good,113,Unhealthy for Sensitive Groups,15.6167,-13.3333,-1,noise,NOISE,-1.0
Cuba,Abreus,112,Unhealthy for Sensitive Groups,1,Good,21,Good,3,Good,112,Unhealthy for Sensitive Groups,22.2806,-80.5678,4,core,LOW,40.0
India,Khammam,112,Unhealthy for Sensitive Groups,1,Good,29,Good,2,Good,112,Unhealthy for Sensitive Groups,17.2473,80.1514,-1,noise,NOISE,-1.0
Italy,Como,112,Unhealthy for Sensitive Groups,1,Good,34,Good,4,Good,112,Unhealthy for Sensitive Groups,45.8103,9.0861,5,core,LOW,61.0
,Nagua,112,Unhealthy for Sensitive Groups,1,Good,39,Good,0,Good,112,Unhealthy for Sensitive Groups,19.38,-69.85,-1,noise,NOISE,-1.0
Philippines,Mambajao,112,Unhealthy for Sensitive Groups,1,Good,23,Good,0,Good,112,Unhealthy for Sensitive Groups,9.25,124.7167,3,core,LOW,113.0
India,Bodhan,112,Unhealthy for Sensitive Groups,1,Good,29,Good,0,Good,112,Unhealthy for Sensitive Groups,18.67,77.9,-1,noise,NOISE,-1.0
Haiti,Carrefour,112,Unhealthy for Sensitive Groups,1,Good,38,Good,0,Good,112,Unhealthy for Sensitive Groups,18.5344,-72.4094,-1,noise,NOISE,-1.0
Turkey,Nizip,112,Unhealthy for Sensitive Groups,1,Good,47,Good,0,Good,112,Unhealthy for Sensitive Groups,37.01,37.7972,6,core,LOW,12.0
Tajikistan,Chkalovsk,111,Unhealthy for Sensitive Groups,1,Good,44,Good,0,Good,111,Unhealthy for Sensitive Groups,56.7667,43.2333,7,core,LOW,240.0
,Coatzacoalcos,111,Unhealthy for Sensitive Groups,1,Good,17,Good,2,Good,111,Unhealthy for Sensitive Groups,18.15,-94.4333,-1,noise,NOISE,-1.0
Switzerland,Volketswil,111,Unhealthy for Sensitive Groups,1,Good,29,Good,2,Good,111,Unhealthy for Sensitive Groups,47.3906,8.6953,1,core,LOW,146.0
Philippines,Iba,111,Unhealthy for Sensitive Groups,1,Good,24,Good,2,Good,111,Unhealthy for Sensitive Groups,15.3333,119.9833,0,core,LOW,83.0
Mali,Kidal,111,Unhealthy for Sensitive Groups,1,Good,20,Good,0,Good,111,Unhealthy for Sensitive Groups,18.4389,1.4083,-1,noise,NOISE,-1.0
Ethiopia,Dire Dawa,111,Unhealthy for Sensitive Groups,1,Good,23,Good,1,Good,111,Unhealthy for Sensitive Groups,9.6,41.8667,-1,noise,NOISE,-1.0
Gambia,Farafenni,111,Unhealthy for Sensitive Groups,1,Good,24,Good,1,Good,111,Unhealthy for Sensitive Groups,13.5667,-15.6,-1,noise,NOISE,-1.0
India,Umarkhed,110,Unhealthy for Sensitive Groups,1,Good,35,Good,0,Good,110,Unhealthy for Sensitive Groups,19.6,77.7,-1,noise,NOISE,-1.0
Dominican Republic,Jarabacoa,110,Unhealthy for Sensitive Groups,1,Good,38,Good,0,Good,110,Unhealthy for Sensitive Groups,19.1167,-70.6333,8,core,LOW,9.0
Colombia,Soledad,110,Unhealthy for Sensitive Groups,1,Good,17,Good,3,Good,110,Unhealthy for Sensitive Groups,10.9167,-74.75,9,core,LOW,17.0
Colombia,Soledad,110,Unhealthy for Sensitive Groups,1,Good,17,Good,3,Good,110,Unhealthy for Sensitive Groups,36.4432,-121.3426,10,core,LOW,162.0
United States of America,Friendswood,110,Unhealthy for Sensitive Groups,1,Good,20,Good,4,Good,110,Unhealthy for Sensitive Groups,29.511,-95.1981,11,core,LOW,98.0
Tajikistan,Panjakent,110,Unhealthy for Sensitive Groups,1,Good,45,Good,0,Good,110,Unhealthy for Sensitive Groups,39.5,67.6167,13,border,LOW,1.0
Tajikistan,Konibodom,109,Unhealthy for Sensitive Groups,1,Good,42,Good,0,Good,109,Unhealthy for Sensitive Groups,40.2833,70.4167,-1,noise,NOISE,-1.0
Uzbekistan,Ohangaron,109,Unhealthy for Sensitive Groups,1,Good,64,Moderate,1,Good,109,Unhealthy for Sensitive Groups,40.9061,69.6444,12,core,LOW,4.0
Dominican Republic,Barahona,108,Unhealthy for Sensitive Groups,1,Good,29,Good,1,Good,108,Unhealthy for Sensitive Groups,18.2,-71.1,8,border,LOW,9.0
Colombia,Puerto Colombia,108,Unhealthy for Sensitive Groups,1,Good,20,Good,2,Good,108,Unhealthy for Sensitive Groups,11.0167,-74.8833,9,core,LOW,17.0
India,Sopur,108,Unhealthy for Sensitive Groups,1,Good,49,Good,0,Good,108,Unhealthy for Sensitive Groups,34.3,74.47,-1,noise,NOISE,-1.0
Uzbekistan,Samarkand,108,Unhealthy for Sensitive Groups,1,Good,52,Moderate,1,Good,108,Unhealthy for Sensitive Groups,39.6547,66.9758,13,core,LOW,1.0
Malaysia,Johor Bahru,107,Unhealthy for Sensitive Groups,1,Good,35,Good,3,Good,107,Unhealthy for Sensitive Groups,1.4556,103.7611,-1,noise,NOISE,-1.0
India,Songadh,107,Unhealthy for Sensitive Groups,1,Good,24,Good,2,Good,107,Unhealthy for Sensitive Groups,21.167,73.564,-1,noise,NOISE,-1.0
Italy,Monza,106,Unhealthy for Sensitive Groups,1,Good,33,Good,6,Good,106,Unhealthy for Sensitive Groups,45.5836,9.2736,5,core,LOW,61.0
Ethiopia,Gelemso,106,Unhealthy for Sensitive Groups,1,Good,22,Good,0,Good,106,Unhealthy for Sensitive Groups,8.8167,40.5167,-1,noise,NOISE,-1.0
Jamaica,Montego Bay,106,Unhealthy for Sensitive Groups,1,Good,19,Good,3,Good,106,Unhealthy for Sensitive Groups,18.4667,-77.9167,-1,noise,NOISE,-1.0
Cuba,Corralillo,106,Unhealthy for Sensitive Groups,1,Good,25,Good,0,Good,106,Unhealthy for Sensitive Groups,22.9856,-80.5831,4,core,LOW,40.0
Italy,Aci Catena,105,Unhealthy for Sensitive Groups,1,Good,43,Good,0,Good,105,Unhealthy for Sensitive Groups,37.6,15.1333,5,core,LOW,61.0
Italy,Olgiate Olona,105,Unhealthy for Sensitive Groups,1,Good,37,Good,4,Good,105,Unhealthy for Sensitive Groups,45.6333,8.8833,5,core,LOW,61.0
Jamaica,Half Way Tree,105,Unhealthy for Sensitive Groups,1,Good,20,Good,3,Good,105,Unhealthy for Sensitive Groups,18.0106,-76.7847,14,core,LOW,5.0
Serbia,Srbobran,105,Unhealthy for Sensitive Groups,1,Good,45,Good,0,Good,105,Unhealthy for Sensitive Groups,45.5333,19.7833,1,core,LOW,146.0
Italy,Busto Arsizio,105,Unhealthy for Sensitive Groups,1,Good,38,Good,3,Good,105,Unhealthy for Sensitive Groups,45.612,8.8518,5,core,LOW,61.0
China,Karamay,104,Unhealthy for Sensitive Groups,1,Good,41,Good,0,Good,104,Unhealthy for Sensitive Groups,45.5799,84.8892,-1,noise,NOISE,-1.0
Italy,Cusano Milanino,104,Unhealthy for Sensitive Groups,1,Good,34,Good,5,Good,104,Unhealthy for Sensitive Groups,45.55,9.1833,5,core,LOW,61.0
Italy,Nova Milanese,104,Unhealthy for Sensitive Groups,1,Good,34,Good,5,Good,104,Unhealthy for Sensitive Groups,45.5833,9.2,5,core,LOW,61.0
Colombia,Baranoa,104,Unhealthy for Sensitive Groups,1,Good,16,Good,2,Good,104,Unhealthy for Sensitive Groups,10.8,-74.9167,9,core,LOW,17.0
Kyrgyzstan,Isfana,104,Unhealthy for Sensitive Groups,1,Good,41,Good,0,Good,104,Unhealthy for Sensitive Groups,39.8389,69.5275,-1,noise,NOISE,-1.0
Mexico,Piedras Negras,104,Unhealthy for Sensitive Groups,1,Good,27,Good,3,Good,104,Unhealthy for Sensitive Groups,28.7,-100.5231,15,core,LOW,25.0
Ukraine,Horodok,103,Unhealthy for Sensitive Groups,1,Good,39,Good,1,Good,103,Unhealthy for Sensitive Groups,49.7822,23.6436,16,core,LOW,37.0
Switzerland,Aarau,103,Unhealthy for Sensitive Groups,1,Good,27,Good,2,Good,103,Unhealthy for Sensitive Groups,47.4,8.05,1,core,LOW,146.0
Jamaica,Spanish Town,103,Unhealthy for Sensitive Groups,1,Good,19,Good,3,Good,103,Unhealthy for Sensitive Groups,17.9959,-76.9551,14,core,LOW,5.0
United States of America,Pearland,103,Unhealthy for Sensitive Groups,1,Good,19,Good,4,Good,103,Unhealthy for Sensitive Groups,29.5581,-95.3218,11,core,LOW,98.0
Cuba,Banes,103,Unhealthy for Sensitive Groups,1,Good,27,Good,1,Good,103,Unhealthy for Sensitive Groups,20.9697,-75.7117,17,core,LOW,26.0
Serbia,Crvenka,103,Unhealthy for Sensitive Groups,1,Good,42,Good,0,Good,103,Unhealthy for Sensitive Groups,45.6583,19.4556,1,core,LOW,146.0
United States of America,Brenham,103,Unhealthy for Sensitive Groups,1,Good,19,Good,2,Good,103,Unhealthy for Sensitive Groups,30.1584,-96.3966,-1,noise,NOISE,-1.0
Ukraine,Horodok,103,Unhealthy for Sensitive Groups,1,Good,39,Good,1,Good,103,Unhealthy for Sensitive Groups,49.1667,26.5667,16,core,LOW,37.0
India,Jalgaon,102,Unhealthy for Sensitive Groups,1,Good,39,Good,0,Good,102,Unhealthy for Sensitive Groups,21.004,75.568,-1,noise,NOISE,-1.0
India,Bandipur,102,Unhealthy for Sensitive Groups,1,Good,48,Good,0,Good,102,Unhealthy for Sensitive Groups,27.9381,84.4069,-1,noise,NOISE,-1.0
Philippines,Castillejos,102,Unhealthy for Sensitive Groups,1,Good,25,Good,3,Good,102,Unhealthy for Sensitive Groups,14.9333,120.2,0,core,LOW,83.0
Haiti,Les Cayes,102,Unhealthy for Sensitive Groups,1,Good,31,Good,0,Good,102,Unhealthy for Sensitive Groups,18.2,-73.75,-1,noise,NOISE,-1.0
Switzerland,Konstanz,102,Unhealthy for Sensitive Groups,1,Good,31,Good,2,Good,102,Unhealthy for Sensitive Groups,47.6667,9.1833,1,core,LOW,146.0
Ethiopia,Huruta,102,Unhealthy for Sensitive Groups,1,Good,23,Good,0,Good,102,Unhealthy for Sensitive Groups,8.15,39.35,-1,noise,NOISE,-1.0
Italy,Vimodrone,102,Unhealthy for Sensitive Groups,1,Good,34,Good,6,Good,102,Unhealthy for Sensitive Groups,45.5139,9.2844,5,core,LOW,61.0
Dominican Republic,Constanza,102,Unhealthy for Sensitive Groups,1,Good,35,Good,0,Good,102,Unhealthy for Sensitive Groups,18.91,-70.75,8,core,LOW,9.0
India,Medak,101,Unhealthy for Sensitive Groups,1,Good,27,Good,0,Good,101,Unhealthy for Sensitive Groups,18.046,78.263,-1,noise,NOISE,-1.0
China,Wuwei,101,Unhealthy for Sensitive Groups,1,Good,64,Moderate,0,Good,101,Unhealthy for Sensitive Groups,37.9278,102.6329,-1,noise,NOISE,-1.0
Italy,Melilli,101,Unhealthy for Sensitive Groups,1,Good,49,Good,0,Good,101,Unhealthy for Sensitive Groups,37.1833,15.1167,5,core,LOW,61.0
Pakistan,Kohat,101,Unhealthy for Sensitive Groups,1,Good,62,Moderate,0,Good,101,Unhealthy for Sensitive Groups,33.5833,71.4333,-1,noise,NOISE,-1.0
Serbia,Belgrade,101,Unhealthy for Sensitive Groups,1,Good,36,Good,4,Good,101,Unhealthy for Sensitive Groups,45.7789,-111.1736,-1,noise,NOISE,-1.0
Serbia,Belgrade,101,Unhealthy for Sensitive Groups,1,Good,36,Good,4,Good,101,Unhealthy for Sensitive Groups,44.82,20.46,1,core,LOW,146.0
,Alcudia,101,Unhealthy for Sensitive Groups,1,Good,49,Good,1,Good,101,Unhealthy for Sensitive Groups,39.8525,3.1192,18,core,LOW,23.0
India,Jangaon,101,Unhealthy for Sensitive Groups,1,Good,28,Good,0,Good,101,Unhealthy for Sensitive Groups,17.7227,79.1518,-1,noise,NOISE,-1.0
Italy,Belluno,100,Unhealthy for Sensitive Groups,1,Good,32,Good,2,Good,100,Unhealthy for Sensitive Groups,46.1403,12.2167,5,core,LOW,61.0
Philippines,Titay,100,Unhealthy for Sensitive Groups,1,Good,17,Good,0,Good,100,Unhealthy for Sensitive Groups,7.8703,122.5594,-1,noise,NOISE,-1.0
Dominican Republic,Quisqueya,100,Unhealthy for Sensitive Groups,1,Good,18,Good,4,Good,100,Unhealthy for Sensitive Groups,18.5542,-69.4056,-1,noise,NOISE,-1.0
Italy,Cormano,100,Unhealthy for Sensitive Groups,1,Good,35,Good,5,Good,100,Unhealthy for Sensitive Groups,45.55,9.1667,5,core,LOW,61.0
Armenia,Masis,100,Unhealthy for Sensitive Groups,1,Good,40,Good,0,Good,100,Unhealthy for Sensitive Groups,40.0633,44.4408,19,core,LOW,142.0
United States of America,Channelview,100,Unhealthy for Sensitive Groups,1,Good,19,Good,4,Good,100,Unhealthy for Sensitive Groups,29.7914,-95.1144,11,core,LOW,98.0
United States of America,Kingsville,99,Moderate,1,Good,19,Good,2,Good,99,Moderate,27.5094,-97.861,-1,noise,NOISE,-1.0
United States of America,Kingsville,99,Moderate,1,Good,19,Good,2,Good,99,Moderate,42.1,-82.7167,20,core,LOW,164.0
Poland,Limanowa,99,Moderate,1,Good,32,Good,2,Good,99,Moderate,49.7006,20.4267,1,core,LOW,146.0
India,Pandharpur,99,Moderate,1,Good,31,Good,1,Good,99,Moderate,17.6778,75.3278,-1,noise,NOISE,-1.0
India,Gulbarga,99,Moderate,1,Good,38,Good,0,Good,99,Moderate,17.329,76.825,-1,noise,NOISE,-1.0
Indonesia,Pasuruan,99,Moderate,1,Good,43,Good,1,Good,99,Moderate,-7.6406,112.9065,21,core,LOW,13.0
Italy,Rho,99,Moderate,1,Good,37,Good,4,Good,99,Moderate,45.5333,9.0333,5,core,LOW,61.0
Italy,Laives,99,Moderate,1,Good,21,Good,5,Good,99,Moderate,46.4228,11.3348,5,core,LOW,61.0
Italy,Formello,98,Moderate,1,Good,45,Good,1,Good,98,Moderate,42.0833,12.4,5,core,LOW,61.0
Italy,Lendinara,98,Moderate,1,Good,36,Good,5,Good,98,Moderate,45.085,11.6006,5,core,LOW,61.0
Jordan,Kuraymah,98,Moderate,1,Good,46,Good,4,Good,98,Moderate,18.55,31.85,-1,noise,NOISE,-1.0
Switzerland,Zofingen,98,Moderate,1,Good,28,Good,2,Good,98,Moderate,47.2833,7.9333,1,core,LOW,146.0
United States of America,Austin,97,Moderate,1,Good,19,Good,2,Good,97,Moderate,43.6721,-92.9784,22,core,LOW,136.0
United States of America,Austin,97,Moderate,1,Good,19,Good,2,Good,97,Moderate,30.3005,-97.7522,23,core,LOW,219.0
India,Jevargi,97,Moderate,1,Good,38,Good,0,Good,97,Moderate,17.0139,76.7732,-1,noise,NOISE,-1.0
Italy,Mariano Comense,97,Moderate,1,Good,58,Moderate,0,Good,97,Moderate,45.7,9.1833,5,core,LOW,61.0
Namibia,Mariental,97,Moderate,1,Good,20,Good,0,Good,97,Moderate,-24.6333,17.9667,-1,noise,NOISE,-1.0
United States of America,Corozal,97,Moderate,1,Good,24,Good,0,Good,97,Moderate,18.4,-88.4,24,core,LOW,19.0
United States of America,Corozal,97,Moderate,1,Good,24,Good,0,Good,97,Moderate,9.3333,-75.25,9,core,LOW,17.0
United States of America,Corozal,97,Moderate,1,Good,24,Good,0,Good,97,Moderate,18.341,-66.3124,2,core,LOW,33.0
United States of America,Humacao,97,Moderate,1,Good,25,Good,0,Good,97,Moderate,18.152,-65.8204,2,core,LOW,33.0
,Anacortes,97,Moderate,1,Good,25,Good,10,Good,97,Moderate,48.4878,-122.6292,25,core,LOW,190.0
South Africa,George,97,Moderate,1,Good,21,Good,0,Good,97,Moderate,-33.9667,22.45,300,border,LOW,51.0
Russian Federation,Kamyzyak,97,Moderate,1,Good,43,Good,0,Good,97,Moderate,46.1167,48.0833,26,core,LOW,108.0
Italy,Olgiate Comasco,97,Moderate,1,Good,56,Moderate,0,Good,97,Moderate,45.7833,8.9667,5,core,LOW,61.0
Italy,Crema,97,Moderate,1,Good,34,Good,6,Good,97,Moderate,45.3667,9.6833,5,core,LOW,61.0
Italy,Lurate Caccivio,97,Moderate,1,Good,56,Moderate,0,Good,97,Moderate,45.7667,9.0,5,core,LOW,61.0
Italy,Fagnano Olona,96,Moderate,1,Good,64,Moderate,0,Good,96,Moderate,45.6667,8.8667,5,core,LOW,61.0
Italy,Casatenovo,96,Moderate,1,Good,56,Moderate,0,Good,96,Moderate,45.6983,9.3117,5,core,LOW,61.0
,Pattani,96,Moderate,1,Good,29,Good,1,Good,96,Moderate,6.8664,101.2508,27,core,LOW,10.0
Mali,Mopti,96,Moderate,1,Good,17,Good,1,Good,96,Moderate,14.49,-4.18,-1,noise,NOISE,-1.0
United States of America,Casper,96,Moderate,1,Good,24,Good,3,Good,96,Moderate,42.842,-106.3208,-1,noise,NOISE,-1.0
United States of America,Overland Park,96,Moderate,1,Good,24,Good,9,Good,96,Moderate,38.887,-94.687,28,core,LOW,44.0
Bosnia and Herzegovina,Livno,96,Moderate,1,Good,41,Good,0,Good,96,Moderate,43.8269,17.0081,29,core,LOW,67.0
Italy,Sesto Calende,96,Moderate,1,Good,59,Moderate,0,Good,96,Moderate,45.7333,8.6333,5,core,LOW,61.0
Philippines,Claveria,95,Moderate,1,Good,23,Good,0,Good,95,Moderate,9.5742,125.7328,3,core,LOW,113.0
Uzbekistan,Kosonsoy,95,Moderate,1,Good,54,Moderate,0,Good,95,Moderate,41.25,71.55,-1,noise,NOISE,-1.0
Azerbaijan,Zabrat,95,Moderate,1,Good,36,Good,0,Good,95,Moderate,40.4872,49.9525,30,core,LOW,3.0
Philippines,General Mamerto Natividad,95,Moderate,1,Good,31,Good,1,Good,95,Moderate,15.603,121.051,0,core,LOW,83.0
Philippines,Claveria,95,Moderate,1,Good,23,Good,0,Good,95,Moderate,12.9035,123.2457,0,core,LOW,83.0
Philippines,Claveria,95,Moderate,1,Good,23,Good,0,Good,95,Moderate,8.61,124.8947,3,core,LOW,113.0
Philippines,Claveria,95,Moderate,1,Good,23,Good,0,Good,95,Moderate,18.6061,121.0822,0,core,LOW,83.0
Cuba,Esmeralda,95,Moderate,1,Good,26,Good,1,Good,95,Moderate,21.8561,-78.1114,255,border,LOW,11.0
United States of America,Merriam,95,Moderate,1,Good,23,Good,10,Good,95,Moderate,39.0186,-94.6933,28,core,LOW,44.0
Poland,Krnov,95,Moderate,1,Good,35,Good,2,Good,95,Moderate,50.0906,17.6986,1,core,LOW,146.0
Switzerland,Horw,95,Moderate,1,Good,25,Good,2,Good,95,Moderate,47.0167,8.3167,1,core,LOW,146.0
United States of America,Shawnee,95,Moderate,1,Good,23,Good,10,Good,95,Moderate,39.0158,-94.8076,28,core,LOW,44.0
Ethiopia,Mojo,95,Moderate,1,Good,26,Good,0,Good,95,Moderate,8.65,39.0833,-1,noise,NOISE,-1.0
United States of America,Shawnee,95,Moderate,1,Good,23,Good,10,Good,95,Moderate,35.3531,-96.9647,31,core,LOW,58.0
Poland,Brodnica,94,Moderate,1,Good,34,Good,1,Good,94,Moderate,53.2597,19.3956,32,core,LOW,250.0
Italy,Carmignano,94,Moderate,1,Good,36,Good,5,Good,94,Moderate,43.8167,11.0167,5,core,LOW,61.0
United States of America,Poplar Bluff,94,Moderate,1,Good,51,Moderate,1,Good,94,Moderate,36.7632,-90.4135,-1,noise,NOISE,-1.0
Mexico,Aldama,94,Moderate,1,Good,18,Good,1,Good,94,Moderate,22.9194,-98.0736,-1,noise,NOISE,-1.0
Mexico,Aldama,94,Moderate,1,Good,18,Good,1,Good,94,Moderate,28.8386,-105.9111,-1,noise,NOISE,-1.0
Italy,Este,94,Moderate,1,Good,36,Good,5,Good,94,Moderate,45.2333,11.6667,5,core,LOW,61.0
Spain,Marratxi,94,Moderate,1,Good,49,Good,1,Good,94,Moderate,39.6421,2.7527,18,core,LOW,23.0
Germany,Wehr,94,Moderate,1,Good,25,Good,3,Good,94,Moderate,47.6297,7.9044,1,core,LOW,146.0
Colombia,Turbaco,94,Moderate,1,Good,22,Good,1,Good,94,Moderate,10.35,-75.3333,9,core,LOW,17.0
Italy,Lecco,94,Moderate,1,Good,47,Good,0,Good,94,Moderate,45.85,9.4,5,core,LOW,61.0
India,Nellikkuppam,94,Moderate,1,Good,39,Good,2,Good,94,Moderate,11.7667,79.6833,33,core,LOW,46.0
Italy,San Donato Milanese,94,Moderate,1,Good,37,Good,5,Good,94,Moderate,45.4167,9.2667,5,core,LOW,61.0
Israel,Kefar Yona,93,Moderate,1,Good,44,Good,7,Good,93,Moderate,32.3171,34.9358,34,core,LOW,8.0
,Split,93,Moderate,1,Good,44,Good,0,Good,93,Moderate,43.51,16.44,29,core,LOW,67.0
United States of America,Dyersburg,93,Moderate,1,Good,24,Good,5,Good,93,Moderate,36.0465,-89.3777,86,border,LOW,6.0
India,Devarkonda,93,Moderate,1,Good,27,Good,0,Good,93,Moderate,16.6919,78.9207,-1,noise,NOISE,-1.0
Sudan,Kassala,93,Moderate,1,Good,37,Good,0,Good,93,Moderate,15.45,36.4,-1,noise,NOISE,-1.0
India,Mangalagiri,93,Moderate,1,Good,26,Good,1,Good,93,Moderate,16.43,80.55,35,core,LOW,14.0
Italy,Villorba,93,Moderate,1,Good,33,Good,5,Good,93,Moderate,45.7333,12.2333,5,core,LOW,61.0
Italy,Carbonera,93,Moderate,1,Good,34,Good,5,Good,93,Moderate,45.6833,12.2833,5,core,LOW,61.0
Malaysia,Cukai,93,Moderate,1,Good,38,Good,0,Good,93,Moderate,4.2332,103.4479,-1,noise,NOISE,-1.0
Switzerland,Liestal,93,Moderate,1,Good,26,Good,3,Good,93,Moderate,47.4667,7.7333,1,core,LOW,146.0
Trinidad and Tobago,Point Fortin,93,Moderate,1,Good,22,Good,2,Good,93,Moderate,10.1667,-61.6667,36,core,LOW,30.0
Philippines,Oroquieta,93,Moderate,1,Good,18,Good,0,Good,93,Moderate,8.4833,123.8,3,core,LOW,113.0
Poland,Garwolin,92,Moderate,1,Good,30,Good,3,Good,92,Moderate,51.9,21.6333,1,core,LOW,146.0
Italy,Cesano Maderno,92,Moderate,1,Good,65,Moderate,0,Good,92,Moderate,45.6307,9.1456,5,core,LOW,61.0
Italy,Oderzo,92,Moderate,1,Good,35,Good,4,Good,92,Moderate,45.7808,12.4928,5,core,LOW,61.0
Armenia,Kapan,92,Moderate,1,Good,37,Good,0,Good,92,Moderate,39.2011,46.415,37,core,LOW,70.0
Poland,Malbork,92,Moderate,1,Good,34,Good,2,Good,92,Moderate,54.0333,19.0333,32,core,LOW,250.0
Singapore,Singapore,91,Moderate,1,Good,29,Good,4,Good,91,Moderate,1.3,103.8,-1,noise,NOISE,-1.0
Italy,Nembro,91,Moderate,1,Good,48,Good,0,Good,91,Moderate,45.7439,9.7594,5,core,LOW,61.0
Turkey,Tire,91,Moderate,1,Good,51,Moderate,1,Good,91,Moderate,38.0833,27.7333,38,core,LOW,43.0
United States of America,Bellaire,91,Moderate,1,Good,18,Good,5,Good,91,Moderate,29.704,-95.4621,11,core,LOW,98.0
Uzbekistan,Parkent,91,Moderate,1,Good,63,Moderate,1,Good,91,Moderate,41.2944,69.6764,12,core,LOW,4.0
Albania,Berat,91,Moderate,1,Good,47,Good,0,Good,91,Moderate,40.7,19.95,1,core,LOW,146.0
United States of America,Pueblo,91,Moderate,1,Good,31,Good,2,Good,91,Moderate,38.2701,-104.6114,39,core,LOW,74.0
United States of America,Harrison,90,Moderate,1,Good,25,Good,2,Good,90,Moderate,40.6374,-79.7173,20,core,LOW,164.0
United States of America,Harrison,90,Moderate,1,Good,25,Good,2,Good,90,Moderate,41.0236,-73.7193,40,core,LOW,169.0
United States of America,Harrison,90,Moderate,1,Good,25,Good,2,Good,90,Moderate,44.1935,-88.2941,41,core,LOW,124.0
United States of America,Harrison,90,Moderate,1,Good,25,Good,2,Good,90,Moderate,39.2584,-84.7868,20,core,LOW,164.0
Philippines,Sibulan,90,Moderate,1,Good,15,Good,0,Good,90,Moderate,9.35,123.2833,3,core,LOW,113.0
Saint Kitts and Nevis,Basseterre,90,Moderate,1,Good,25,Good,0,Good,90,Moderate,17.3,-62.7333,-1,noise,NOISE,-1.0
Ethiopia,Jijiga,90,Moderate,1,Good,21,Good,0,Good,90,Moderate,9.35,42.8,-1,noise,NOISE,-1.0
Guinea,Pita,90,Moderate,1,Good,19,Good,0,Good,90,Moderate,11.08,-12.401,-1,noise,NOISE,-1.0
Italy,Biella,90,Moderate,1,Good,40,Good,2,Good,90,Moderate,45.5667,8.0667,5,core,LOW,61.0
Somalia,Berbera,90,Moderate,1,Good,24,Good,0,Good,90,Moderate,10.4356,45.0164,-1,noise,NOISE,-1.0
Iran (Islamic Republic of),Sarakhs,90,Moderate,1,Good,45,Good,0,Good,90,Moderate,36.545,61.1578,-1,noise,NOISE,-1.0
United States of America,Harrison,90,Moderate,1,Good,25,Good,2,Good,90,Moderate,36.2438,-93.1198,-1,noise,NOISE,-1.0
United States of America,Harrison,90,Moderate,1,Good,25,Good,2,Good,90,Moderate,40.7431,-74.1531,40,core,LOW,169.0
Italy,Aprilia,90,Moderate,1,Good,46,Good,0,Good,90,Moderate,41.5833,12.65,5,core,LOW,61.0
Philippines,San Jacinto,89,Moderate,1,Good,27,Good,6,Good,89,Moderate,33.797,-116.9916,42,core,LOW,130.0
Italy,Corigliano Calabro,89,Moderate,1,Good,44,Good,1,Good,89,Moderate,39.6,16.5167,5,core,LOW,61.0
Philippines,San Jacinto,89,Moderate,1,Good,27,Good,6,Good,89,Moderate,9.8311,-75.1219,9,core,LOW,17.0
Philippines,San Jacinto,89,Moderate,1,Good,27,Good,6,Good,89,Moderate,14.6667,-89.5,43,core,LOW,97.0
Philippines,San Jacinto,89,Moderate,1,Good,27,Good,6,Good,89,Moderate,16.0725,120.4411,0,core,LOW,83.0
Philippines,San Jacinto,89,Moderate,1,Good,27,Good,6,Good,89,Moderate,12.5683,123.7336,0,core,LOW,83.0
Ukraine,Korostyshiv,89,Moderate,1,Good,39,Good,0,Good,89,Moderate,50.3186,29.0592,44,core,LOW,88.0
Ghana,Swedru,89,Moderate,1,Good,19,Good,0,Good,89,Moderate,5.5306,-0.7028,45,core,LOW,65.0
Italy,Melzo,89,Moderate,1,Good,63,Moderate,0,Good,89,Moderate,45.5,9.4167,5,core,LOW,61.0
Italy,Seriate,89,Moderate,1,Good,50,Good,0,Good,89,Moderate,45.6847,9.7178,5,core,LOW,61.0
Mali,Banamba,89,Moderate,1,Good,22,Good,1,Good,89,Moderate,13.55,-7.45,-1,noise,NOISE,-1.0
Sri Lanka,Moratuwa,89,Moderate,1,Good,20,Good,3,Good,89,Moderate,6.7991,79.8767,-1,noise,NOISE,-1.0
Philippines,Padada,89,Moderate,1,Good,13,Good,3,Good,89,Moderate,6.6333,125.35,3,core,LOW,113.0
Mali,Bougouni,89,Moderate,1,Good,16,Good,0,Good,89,Moderate,11.4167,-7.4833,-1,noise,NOISE,-1.0
Armenia,Yeghvard,89,Moderate,1,Good,40,Good,0,Good,89,Moderate,40.3217,44.4814,19,core,LOW,142.0
Italy,Carugate,89,Moderate,1,Good,64,Moderate,0,Good,89,Moderate,45.55,9.3333,5,core,LOW,61.0
Italy,Bergamo,89,Moderate,1,Good,50,Good,0,Good,89,Moderate,45.695,9.67,5,core,LOW,61.0
Italy,Agrate Brianza,89,Moderate,1,Good,64,Moderate,0,Good,89,Moderate,45.5833,9.35,5,core,LOW,61.0
Malaysia,Banting,89,Moderate,1,Good,36,Good,1,Good,89,Moderate,5.7167,120.9,46,core,LOW,73.0
United States of America,Mission Bend,89,Moderate,1,Good,18,Good,4,Good,89,Moderate,29.6948,-95.6658,11,core,LOW,98.0
Philippines,Tayug,89,Moderate,1,Good,29,Good,1,Good,89,Moderate,16.0267,120.7478,0,core,LOW,83.0
Eritrea,Asmara,88,Moderate,1,Good,29,Good,0,Good,88,Moderate,15.3228,38.925,-1,noise,NOISE,-1.0
Greece,Panorama,88,Moderate,1,Good,44,Good,0,Good,88,Moderate,-21.3564,-51.86,47,core,LOW,267.0
Czechia,Opava,88,Moderate,1,Good,41,Good,1,Good,88,Moderate,49.9381,17.9044,1,core,LOW,146.0
Italy,Mirano,88,Moderate,1,Good,65,Moderate,0,Good,88,Moderate,45.5,12.1,5,core,LOW,61.0
Cuba,Matanzas,88,Moderate,1,Good,24,Good,1,Good,88,Moderate,18.2428,-70.4192,8,core,LOW,9.0
United States of America,Bella Vista,88,Moderate,1,Good,23,Good,4,Good,88,Moderate,15.6167,-92.2333,-1,noise,NOISE,-1.0
United States of America,Bella Vista,88,Moderate,1,Good,23,Good,4,Good,88,Moderate,-22.1167,-56.5167,-1,noise,NOISE,-1.0
United States of America,Bella Vista,88,Moderate,1,Good,23,Good,4,Good,88,Moderate,-27.0333,-65.3,-1,noise,NOISE,-1.0
United States of America,Bella Vista,88,Moderate,1,Good,23,Good,4,Good,88,Moderate,-28.4667,-59.05,48,core,LOW,36.0
United States of America,Bella Vista,88,Moderate,1,Good,23,Good,4,Good,88,Moderate,36.4667,-94.2707,49,core,LOW,32.0
United States of America,Bella Vista,88,Moderate,1,Good,23,Good,4,Good,88,Moderate,-34.5333,-58.6667,50,core,LOW,177.0
Italy,Celano,88,Moderate,1,Good,37,Good,2,Good,88,Moderate,42.0864,13.5575,5,core,LOW,61.0
Trinidad and Tobago,Princes Town,88,Moderate,1,Good,21,Good,3,Good,88,Moderate,10.2667,-61.3833,36,core,LOW,30.0
Ukraine,Burshtyn,88,Moderate,1,Good,38,Good,1,Good,88,Moderate,49.26,24.635,16,core,LOW,37.0
Turkey,Nazilli,88,Moderate,1,Good,45,Good,0,Good,88,Moderate,37.9125,28.3206,38,border,LOW,43.0
United States of America,Bentonville,88,Moderate,1,Good,23,Good,4,Good,88,Moderate,36.3547,-94.2305,49,core,LOW,32.0
Turkey,Nusaybin,88,Moderate,1,Good,34,Good,3,Good,88,Moderate,37.075,41.2153,51,core,LOW,18.0
Cuba,Matanzas,88,Moderate,1,Good,24,Good,1,Good,88,Moderate,23.0511,-81.5753,4,core,LOW,40.0
Italy,Ivrea,87,Moderate,1,Good,39,Good,2,Good,87,Moderate,45.4674,7.8748,5,core,LOW,61.0
Serbia,Kovin,87,Moderate,1,Good,41,Good,3,Good,87,Moderate,44.75,20.9667,1,core,LOW,146.0
Russian Federation,Baymak,87,Moderate,1,Good,36,Good,0,Good,87,Moderate,52.5833,58.3167,-1,noise,NOISE,-1.0
Colombia,Malambo,87,Moderate,1,Good,28,Good,1,Good,87,Moderate,10.85,-74.75,9,core,LOW,17.0
Turkey,Fethiye,87,Moderate,1,Good,39,Good,2,Good,87,Moderate,36.6514,29.1231,-1,noise,NOISE,-1.0
United States of America,Parsons,87,Moderate,1,Good,27,Good,3,Good,87,Moderate,37.3405,-95.2958,49,core,LOW,32.0
Cuba,Contramaestre,87,Moderate,1,Good,38,Good,0,Good,87,Moderate,20.3,-76.2506,17,core,LOW,26.0
Serbia,Zrenjanin,87,Moderate,1,Good,40,Good,3,Good,87,Moderate,45.3833,20.3894,1,core,LOW,146.0
Poland,Puck,87,Moderate,1,Good,24,Good,3,Good,87,Moderate,54.7,18.4,32,core,LOW,250.0
Italy,Cadoneghe,87,Moderate,1,Good,63,Moderate,0,Good,87,Moderate,45.45,11.9333,5,core,LOW,61.0
Switzerland,Binningen,87,Moderate,1,Good,25,Good,3,Good,87,Moderate,47.5333,7.5667,1,core,LOW,146.0
Venezuela (Bolivarian Republic of),Cabimas,87,Moderate,1,Good,20,Good,4,Good,87,Moderate,10.4,-71.4333,-1,noise,NOISE,-1.0
Switzerland,Bellinzona,87,Moderate,1,Good,41,Good,0,Good,87,Moderate,46.1954,9.0297,5,core,LOW,61.0
India,Lala,87,Moderate,1,Good,36,Good,0,Good,87,Moderate,7.9667,123.75,3,core,LOW,113.0
Cuba,Rodas,87,Moderate,1,Good,18,Good,3,Good,87,Moderate,22.3428,-80.5553,4,core,LOW,40.0
Italy,Selvazzano Dentro,87,Moderate,1,Good,61,Moderate,0,Good,87,Moderate,45.3833,11.7833,5,core,LOW,61.0
Philippines,Davao,87,Moderate,1,Good,17,Good,1,Good,87,Moderate,7.0667,125.6,3,core,LOW,113.0
Serbia,Kikinda,87,Moderate,1,Good,40,Good,2,Good,87,Moderate,45.8333,20.45,1,core,LOW,146.0
Italy,Monselice,87,Moderate,1,Good,63,Moderate,0,Good,87,Moderate,45.2333,11.75,5,core,LOW,61.0
Iran (Islamic Republic of),Qorveh,87,Moderate,1,Good,59,Moderate,0,Good,87,Moderate,35.1664,47.8044,-1,noise,NOISE,-1.0
Niger,Ayorou,87,Moderate,1,Good,20,Good,1,Good,87,Moderate,14.735,0.92,-1,noise,NOISE,-1.0
Poland,Poniatowa,87,Moderate,1,Good,35,Good,2,Good,87,Moderate,51.1833,22.0667,1,core,LOW,146.0
Iran (Islamic Republic of),Khomeyn,87,Moderate,1,Good,51,Moderate,0,Good,87,Moderate,33.6422,50.0789,-1,noise,NOISE,-1.0
Cuba,Los Arabos,87,Moderate,1,Good,20,Good,1,Good,87,Moderate,22.74,-80.7161,4,core,LOW,40.0
Italy,Umbertide,87,Moderate,1,Good,37,Good,3,Good,87,Moderate,43.3,12.3333,5,core,LOW,61.0
Italy,Vigonza,87,Moderate,1,Good,63,Moderate,0,Good,87,Moderate,45.45,11.9833,5,core,LOW,61.0
Italy,Adria,87,Moderate,1,Good,65,Moderate,0,Good,87,Moderate,45.05,12.05,5,core,LOW,61.0
Tajikistan,Moskovskiy,87,Moderate,1,Good,45,Good,0,Good,87,Moderate,55.6,37.35,7,core,LOW,240.0
Malaysia,Kuantan,86,Moderate,1,Good,38,Good,0,Good,86,Moderate,3.8167,103.3333,-1,noise,NOISE,-1.0
United States of America,Springdale,86,Moderate,1,Good,24,Good,4,Good,86,Moderate,39.8769,-74.9724,40,core,LOW,169.0
United States of America,Springdale,86,Moderate,1,Good,24,Good,4,Good,86,Moderate,39.2909,-84.476,20,core,LOW,164.0
United States of America,Slidell,86,Moderate,1,Good,25,Good,4,Good,86,Moderate,30.2887,-89.7828,52,core,LOW,56.0
United States of America,Springdale,86,Moderate,1,Good,24,Good,4,Good,86,Moderate,36.1901,-94.1574,49,core,LOW,32.0
Italy,Caravaggio,86,Moderate,1,Good,58,Moderate,0,Good,86,Moderate,45.4978,9.6431,5,core,LOW,61.0
Nicaragua,El Viejo,86,Moderate,1,Good,18,Good,3,Good,86,Moderate,12.6631,-87.1694,53,core,LOW,217.0
Venezuela (Bolivarian Republic of),Turmero,86,Moderate,1,Good,39,Good,2,Good,86,Moderate,10.2283,-67.4753,54,core,LOW,103.0
Iran (Islamic Republic of),Marand,86,Moderate,1,Good,44,Good,0,Good,86,Moderate,38.4331,45.7686,-1,noise,NOISE,-1.0
Cuba,Cumanayagua,86,Moderate,1,Good,21,Good,2,Good,86,Moderate,22.1522,-80.2011,4,core,LOW,40.0
Italy,San Giuliano Milanese,86,Moderate,1,Good,65,Moderate,0,Good,86,Moderate,45.4,9.2833,5,core,LOW,61.0
Italy,Corleone,86,Moderate,1,Good,46,Good,0,Good,86,Moderate,37.8167,13.3,5,core,LOW,61.0
Italy,Camposampiero,86,Moderate,1,Good,60,Moderate,0,Good,86,Moderate,45.5667,11.9333,5,core,LOW,61.0
Serbia,Pristina,86,Moderate,1,Good,47,Good,0,Good,86,Moderate,42.6633,21.1622,1,core,LOW,146.0
Mexico,Felipe Carrillo Puerto,86,Moderate,1,Good,25,Good,0,Good,86,Moderate,19.5786,-88.0453,-1,noise,NOISE,-1.0
Hungary,Dabas,86,Moderate,1,Good,37,Good,3,Good,86,Moderate,47.189,19.3126,1,core,LOW,146.0
Italy,Rivarolo Canavese,86,Moderate,1,Good,40,Good,2,Good,86,Moderate,45.3312,7.7171,5,core,LOW,61.0
Italy,Vigodarzere,86,Moderate,1,Good,62,Moderate,0,Good,86,Moderate,45.45,11.8833,5,core,LOW,61.0
Turkey,Manisa,86,Moderate,1,Good,48,Good,1,Good,86,Moderate,38.6306,27.4222,38,core,LOW,43.0
Republic of North Macedonia,Lipkovo,86,Moderate,1,Good,47,Good,0,Good,86,Moderate,42.1553,21.5875,1,core,LOW,146.0
Bulgaria,Botevgrad,86,Moderate,1,Good,46,Good,1,Good,86,Moderate,42.9073,23.7937,1,core,LOW,146.0
Ethiopia,Giyon,86,Moderate,1,Good,24,Good,0,Good,86,Moderate,8.5333,37.9667,-1,noise,NOISE,-1.0
Italy,Paullo,85,Moderate,1,Good,64,Moderate,0,Good,85,Moderate,45.4167,9.4,5,core,LOW,61.0
Venezuela (Bolivarian Republic of),Moron,85,Moderate,1,Good,43,Good,0,Good,85,Moderate,18.56,-74.2579,-1,noise,NOISE,-1.0
United States of America,Junction City,85,Moderate,1,Good,28,Good,4,Good,85,Moderate,39.0277,-96.8508,-1,noise,NOISE,-1.0
Italy,Vedelago,85,Moderate,1,Good,58,Moderate,0,Good,85,Moderate,45.6833,12.0167,5,core,LOW,61.0
United States of America,Brent,85,Moderate,1,Good,14,Good,11,Good,85,Moderate,30.4727,-87.2495,52,core,LOW,56.0
United States of America,Natchez,85,Moderate,1,Good,17,Good,3,Good,85,Moderate,31.5437,-91.3867,-1,noise,NOISE,-1.0
Jordan,Irbid,85,Moderate,1,Good,46,Good,3,Good,85,Moderate,32.55,35.85,34,border,LOW,8.0
Slovenia,Celje,85,Moderate,1,Good,41,Good,3,Good,85,Moderate,46.2358,15.2675,1,core,LOW,146.0
Italy,Borgaro Torinese,85,Moderate,1,Good,40,Good,2,Good,85,Moderate,45.15,7.65,5,core,LOW,61.0
Italy,Guastalla,85,Moderate,1,Good,27,Good,6,Good,85,Moderate,44.9167,10.6667,5,core,LOW,61.0
Ukraine,Vyshneve,85,Moderate,1,Good,39,Good,1,Good,85,Moderate,50.3869,30.3581,44,core,LOW,88.0
Israel,Lod,85,Moderate,1,Good,53,Moderate,4,Good,85,Moderate,31.9519,34.8881,34,core,LOW,8.0
India,Avanigadda,85,Moderate,1,Good,29,Good,1,Good,85,Moderate,16.0197,80.92,35,core,LOW,14.0
Democratic Republic of the Congo,Kampene,85,Moderate,1,Good,18,Good,0,Good,85,Moderate,-3.5968,26.6658,-1,noise,NOISE,-1.0
Poland,Jaworzno,85,Moderate,1,Good,41,Good,2,Good,85,Moderate,50.2044,19.27,1,core,LOW,146.0
United States of America,Carbondale,84,Moderate,1,Good,28,Good,6,Good,84,Moderate,41.5714,-75.5048,40,core,LOW,169.0
Italy,Bovolone,84,Moderate,1,Good,59,Moderate,0,Good,84,Moderate,45.25,11.1333,5,core,LOW,61.0
Philippines,Manaoag,84,Moderate,1,Good,26,Good,1,Good,84,Moderate,16.0439,120.4856,0,core,LOW,83.0
Ghana,Suhum,84,Moderate,1,Good,18,Good,1,Good,84,Moderate,6.0333,-0.45,45,core,LOW,65.0
United States of America,Chalmette,84,Moderate,1,Good,26,Good,4,Good,84,Moderate,29.9438,-89.966,52,core,LOW,56.0
China,Kuytun,84,Moderate,1,Good,20,Good,4,Good,84,Moderate,44.4264,84.9032,-1,noise,NOISE,-1.0
Italy,Legnago,84,Moderate,1,Good,62,Moderate,0,Good,84,Moderate,45.1929,11.3115,5,core,LOW,61.0
Philippines,Rizal,84,Moderate,1,Good,31,Good,1,Good,84,Moderate,14.1083,121.3917,0,core,LOW,83.0
Ghana,Kade,84,Moderate,1,Good,18,Good,1,Good,84,Moderate,6.0833,-0.8333,45,core,LOW,65.0
Italy,Collecchio,84,Moderate,1,Good,34,Good,5,Good,84,Moderate,44.75,10.2167,5,core,LOW,61.0
United States of America,Louisville,84,Moderate,1,Good,37,Good,4,Good,84,Moderate,39.971,-105.1441,39,core,LOW,74.0
United States of America,Louisville,84,Moderate,1,Good,37,Good,4,Good,84,Moderate,38.1663,-85.6485,55,core,LOW,92.0
United States of America,Louisville,84,Moderate,1,Good,37,Good,4,Good,84,Moderate,40.837,-81.2643,20,core,LOW,164.0
United States of America,Springboro,84,Moderate,1,Good,41,Good,5,Good,84,Moderate,39.5615,-84.2348,20,core,LOW,164.0
United States of America,Carbondale,84,Moderate,1,Good,28,Good,6,Good,84,Moderate,37.7221,-89.2237,56,core,LOW,54.0
,Kochi,84,Moderate,1,Good,25,Good,1,Good,84,Moderate,9.97,76.28,57,core,LOW,2.0
Philippines,Rizal,84,Moderate,1,Good,31,Good,1,Good,84,Moderate,12.4667,120.9667,58,core,LOW,87.0
India,Karambakkudi,84,Moderate,1,Good,40,Good,1,Good,84,Moderate,10.4587,79.141,59,core,LOW,62.0
Philippines,Rizal,84,Moderate,1,Good,31,Good,1,Good,84,Moderate,17.5,121.6,0,core,LOW,83.0
India,Shertallai,84,Moderate,1,Good,24,Good,0,Good,84,Moderate,9.6869,76.3361,57,core,LOW,2.0
Philippines,Rizal,84,Moderate,1,Good,31,Good,1,Good,84,Moderate,15.71,121.1047,0,core,LOW,83.0
Philippines,Rizal,84,Moderate,1,Good,31,Good,1,Good,84,Moderate,17.8478,121.345,0,core,LOW,83.0
Germany,Weingarten,84,Moderate,1,Good,33,Good,3,Good,84,Moderate,49.0514,8.5306,1,core,LOW,146.0
Germany,Weingarten,84,Moderate,1,Good,33,Good,3,Good,84,Moderate,47.8092,9.6444,1,core,LOW,146.0
Tajikistan,Farkhor,84,Moderate,1,Good,44,Good,0,Good,84,Moderate,37.5,69.4,-1,noise,NOISE,-1.0
Philippines,Rizal,84,Moderate,1,Good,31,Good,1,Good,84,Moderate,8.5272,123.5517,3,core,LOW,113.0
Venezuela (Bolivarian Republic of),Punto Fijo,84,Moderate,1,Good,28,Good,0,Good,84,Moderate,11.7167,-70.1833,-1,noise,NOISE,-1.0
Italy,San Bonifacio,84,Moderate,1,Good,51,Moderate,0,Good,84,Moderate,45.4,11.2833,5,core,LOW,61.0
India,Alwaye,83,Moderate,1,Good,25,Good,1,Good,83,Moderate,10.1167,76.35,57,core,LOW,2.0
Iran (Islamic Republic of),Naqadeh,83,Moderate,1,Good,41,Good,0,Good,83,Moderate,36.9547,45.3881,-1,noise,NOISE,-1.0
Italy,Tavagnacco,83,Moderate,1,Good,38,Good,3,Good,83,Moderate,46.1333,13.2167,5,core,LOW,61.0
Italy,Dueville,83,Moderate,1,Good,48,Good,0,Good,83,Moderate,45.6333,11.55,5,core,LOW,61.0
India,Ongole,83,Moderate,1,Good,33,Good,0,Good,83,Moderate,15.506,80.049,35,core,LOW,14.0
Republic of North Macedonia,Vasilevo,83,Moderate,1,Good,45,Good,0,Good,83,Moderate,41.4758,22.6417,1,core,LOW,146.0
,Salou,83,Moderate,1,Good,29,Good,2,Good,83,Moderate,41.0796,1.1316,60,core,LOW,155.0
Republic of North Macedonia,Brvenica,83,Moderate,1,Good,45,Good,0,Good,83,Moderate,41.9672,20.9808,1,core,LOW,146.0
Canada,Thunder Bay,83,Moderate,1,Good,22,Good,0,Good,83,Moderate,48.3822,-89.2461,-1,noise,NOISE,-1.0
Kazakhstan,Almaty,83,Moderate,1,Good,46,Good,1,Good,83,Moderate,43.2775,76.8958,-1,noise,NOISE,-1.0
Italy,Domodossola,83,Moderate,1,Good,39,Good,0,Good,83,Moderate,46.1161,8.2911,5,core,LOW,61.0
Colombia,Circasia,83,Moderate,1,Good,19,Good,3,Good,83,Moderate,4.6167,-75.6333,61,core,LOW,161.0
Philippines,Bais,83,Moderate,1,Good,14,Good,0,Good,83,Moderate,9.5907,123.1213,3,core,LOW,113.0
Italy,Sona,83,Moderate,1,Good,51,Moderate,0,Good,83,Moderate,45.4333,10.8333,5,core,LOW,61.0
Italy,Montebelluna,83,Moderate,1,Good,54,Moderate,0,Good,83,Moderate,45.7753,12.0389,5,core,LOW,61.0
Italy,Pescantina,83,Moderate,1,Good,49,Good,0,Good,83,Moderate,45.4833,10.8667,5,core,LOW,61.0
Italy,Castelvetrano,83,Moderate,1,Good,46,Good,0,Good,83,Moderate,37.6833,12.7931,5,core,LOW,61.0
Colombia,Algarrobo,83,Moderate,1,Good,27,Good,0,Good,83,Moderate,10.1,-74.2667,9,border,LOW,17.0
United States of America,Hallandale Beach,83,Moderate,1,Good,11,Good,12,Good,83,Moderate,25.9854,-80.1423,62,core,LOW,123.0
Italy,Bussolengo,83,Moderate,1,Good,49,Good,0,Good,83,Moderate,45.4667,10.85,5,core,LOW,61.0
Canada,Amherstburg,83,Moderate,1,Good,42,Good,8,Good,83,Moderate,42.1,-83.0833,20,core,LOW,164.0
Colombia,Algarrobo,83,Moderate,1,Good,27,Good,0,Good,83,Moderate,-33.3911,-71.6928,63,core,LOW,95.0
Bulgaria,Kostinbrod,83,Moderate,1,Good,46,Good,1,Good,83,Moderate,42.8167,23.2167,1,core,LOW,146.0
Poland,Starachowice,82,Moderate,1,Good,35,Good,1,Good,82,Moderate,51.05,21.0667,1,core,LOW,146.0
Poland,Strzegom,82,Moderate,1,Good,38,Good,1,Good,82,Moderate,50.9611,16.3444,1,core,LOW,146.0
Bulgaria,Novi Iskar,82,Moderate,1,Good,46,Good,1,Good,82,Moderate,42.8,23.35,1,core,LOW,146.0
Italy,Montale,82,Moderate,1,Good,39,Good,3,Good,82,Moderate,43.9333,11.0167,5,core,LOW,61.0
Italy,Occhiobello,82,Moderate,1,Good,45,Good,2,Good,82,Moderate,44.9216,11.5812,5,core,LOW,61.0
Italy,Carmagnola,82,Moderate,1,Good,38,Good,3,Good,82,Moderate,44.85,7.7167,5,core,LOW,61.0
Italy,Chiampo,82,Moderate,1,Good,47,Good,0,Good,82,Moderate,45.55,11.2833,5,core,LOW,61.0
Ethiopia,Himora,82,Moderate,1,Good,28,Good,0,Good,82,Moderate,14.2861,36.6097,-1,noise,NOISE,-1.0
Colombia,Fonseca,82,Moderate,1,Good,9,Good,2,Good,82,Moderate,10.8333,-72.8333,64,core,LOW,16.0
United States of America,Fort Pierce,82,Moderate,1,Good,23,Good,7,Good,82,Moderate,27.4255,-80.3431,62,core,LOW,123.0
United States of America,Hobbs,82,Moderate,1,Good,33,Good,0,Good,82,Moderate,32.7281,-103.16,-1,noise,NOISE,-1.0
Cuba,Jovellanos,82,Moderate,1,Good,19,Good,1,Good,82,Moderate,22.8106,-81.1981,4,core,LOW,40.0
Italy,Mantova,82,Moderate,1,Good,64,Moderate,0,Good,82,Moderate,45.1564,10.7911,5,core,LOW,61.0
Czechia,Pardubice,82,Moderate,1,Good,43,Good,1,Good,82,Moderate,50.0386,15.7792,1,core,LOW,146.0
Azerbaijan,Pushkino,82,Moderate,1,Good,46,Good,0,Good,82,Moderate,56.0167,37.8333,7,core,LOW,240.0
Italy,Rovato,82,Moderate,1,Good,49,Good,0,Good,82,Moderate,45.567,9.9986,5,core,LOW,61.0
India,Chidambaram,82,Moderate,1,Good,41,Good,1,Good,82,Moderate,11.407,79.6912,33,core,LOW,46.0
Czechia,Chrudim,82,Moderate,1,Good,43,Good,1,Good,82,Moderate,49.9511,15.7956,1,core,LOW,146.0
Slovenia,Izola,82,Moderate,1,Good,50,Good,0,Good,82,Moderate,45.5344,13.6675,5,core,LOW,61.0
Italy,Goito,82,Moderate,1,Good,61,Moderate,0,Good,82,Moderate,45.25,10.6667,5,core,LOW,61.0
Slovakia,Myjava,82,Moderate,1,Good,37,Good,2,Good,82,Moderate,48.7492,17.5644,1,core,LOW,146.0
Germany,Bischofswerda,82,Moderate,1,Good,35,Good,2,Good,82,Moderate,51.1275,14.1797,1,core,LOW,146.0
Mexico,Tecamachalco,82,Moderate,1,Good,30,Good,1,Good,82,Moderate,18.8667,-97.7167,248,border,LOW,41.0
Ukraine,Pohrebyshche,82,Moderate,1,Good,36,Good,1,Good,82,Moderate,49.4869,29.2733,44,core,LOW,88.0
Italy,Lonate Pozzolo,82,Moderate,1,Good,42,Good,2,Good,82,Moderate,45.6,8.75,5,core,LOW,61.0
Slovakia,Senec,82,Moderate,1,Good,35,Good,2,Good,82,Moderate,48.2189,17.3997,1,core,LOW,146.0
Slovenia,Velenje,82,Moderate,1,Good,32,Good,3,Good,82,Moderate,46.3625,15.1144,1,core,LOW,146.0
Mexico,Juan Aldama,81,Moderate,1,Good,29,Good,0,Good,81,Moderate,24.291,-103.394,-1,noise,NOISE,-1.0
Cuba,Jaruco,81,Moderate,1,Good,25,Good,2,Good,81,Moderate,23.0428,-82.0094,4,core,LOW,40.0
Yemen,Aden,81,Moderate,1,Good,41,Good,0,Good,81,Moderate,12.8,45.0333,-1,noise,NOISE,-1.0
Azerbaijan,Qobustan,81,Moderate,1,Good,48,Good,0,Good,81,Moderate,40.0842,49.4158,30,core,LOW,3.0
United States of America,Lafayette,81,Moderate,1,Good,20,Good,8,Good,81,Moderate,37.8919,-122.1189,10,core,LOW,162.0
United States of America,Lafayette,81,Moderate,1,Good,20,Good,8,Good,81,Moderate,39.9946,-105.0998,39,core,LOW,74.0
United States of America,Lawton,81,Moderate,1,Good,24,Good,2,Good,81,Moderate,34.6175,-98.4202,31,border,LOW,58.0
Azerbaijan,Qobustan,81,Moderate,1,Good,48,Good,0,Good,81,Moderate,40.5367,48.9328,-1,noise,NOISE,-1.0
,Bagheria,81,Moderate,1,Good,46,Good,0,Good,81,Moderate,38.0833,13.5,5,core,LOW,61.0
Poland,Brzeg,81,Moderate,1,Good,42,Good,1,Good,81,Moderate,50.8667,17.4833,1,core,LOW,146.0
Italy,Susegana,81,Moderate,1,Good,53,Moderate,0,Good,81,Moderate,45.85,12.25,5,core,LOW,61.0
Republic of North Macedonia,Gevgelija,81,Moderate,1,Good,47,Good,0,Good,81,Moderate,41.1392,22.5025,1,core,LOW,146.0
United States of America,Lafayette,81,Moderate,1,Good,20,Good,8,Good,81,Moderate,30.2082,-92.0325,65,core,LOW,76.0
United States of America,Lafayette,81,Moderate,1,Good,20,Good,8,Good,81,Moderate,40.3991,-86.8593,66,core,LOW,135.0
Ukraine,Borodyanka,81,Moderate,1,Good,37,Good,1,Good,81,Moderate,50.6474,29.9258,44,core,LOW,88.0
Trinidad and Tobago,Arouca,81,Moderate,1,Good,21,Good,4,Good,81,Moderate,40.9338,-8.2449,67,core,LOW,323.0
United States of America,Surprise,81,Moderate,1,Good,24,Good,7,Good,81,Moderate,33.6815,-112.4515,68,core,LOW,50.0
Azerbaijan,Saray,81,Moderate,1,Good,47,Good,0,Good,81,Moderate,41.4411,27.9216,151,border,LOW,55.0
Azerbaijan,Saray,81,Moderate,1,Good,47,Good,0,Good,81,Moderate,40.5322,49.7164,30,core,LOW,3.0
Burkina Faso,Ouahigouya,81,Moderate,1,Good,35,Good,0,Good,81,Moderate,13.5833,-2.4167,131,border,LOW,7.0
Slovenia,Koper,81,Moderate,1,Good,49,Good,0,Good,81,Moderate,45.55,13.7333,5,core,LOW,61.0
Czechia,Prague,81,Moderate,1,Good,37,Good,2,Good,81,Moderate,50.0875,14.4214,1,core,LOW,146.0
Colombia,Maicao,81,Moderate,1,Good,22,Good,1,Good,81,Moderate,11.3778,-72.2389,-1,noise,NOISE,-1.0
Italy,Taormina,81,Moderate,1,Good,44,Good,0,Good,81,Moderate,37.8518,15.2857,5,core,LOW,61.0
Philippines,Pamplona,81,Moderate,1,Good,14,Good,0,Good,81,Moderate,18.4661,121.3425,0,core,LOW,83.0
United States of America,Catalina Foothills,81,Moderate,1,Good,20,Good,6,Good,81,Moderate,32.3046,-110.8838,68,core,LOW,50.0
Mexico,Reforma,81,Moderate,1,Good,23,Good,0,Good,81,Moderate,17.8658,-93.1472,201,border,LOW,126.0
India,Chinna Salem,81,Moderate,1,Good,43,Good,2,Good,81,Moderate,11.6342,78.8741,33,border,LOW,46.0
Tajikistan,Dushanbe,81,Moderate,1,Good,40,Good,0,Good,81,Moderate,38.5367,68.78,-1,noise,NOISE,-1.0
Trinidad and Tobago,Arouca,81,Moderate,1,Good,21,Good,4,Good,81,Moderate,10.6333,-61.3333,36,core,LOW,30.0
Hungary,Budapest,81,Moderate,1,Good,37,Good,2,Good,81,Moderate,47.4925,19.0514,1,core,LOW,146.0
Italy,Ciampino,81,Moderate,1,Good,46,Good,2,Good,81,Moderate,41.8,12.6,5,core,LOW,61.0
Mongolia,Erdenet,81,Moderate,1,Good,34,Good,0,Good,81,Moderate,49.0278,104.0444,-1,noise,NOISE,-1.0
Philippines,Pamplona,81,Moderate,1,Good,14,Good,0,Good,81,Moderate,42.8167,-1.65,159,border,LOW,48.0
Venezuela (Bolivarian Republic of),Ciudad Guayana,81,Moderate,1,Good,14,Good,0,Good,81,Moderate,8.3667,-62.65,-1,noise,NOISE,-1.0
Philippines,Pamplona,81,Moderate,1,Good,14,Good,0,Good,81,Moderate,7.3781,-72.6525,69,core,LOW,206.0
Philippines,Pamplona,81,Moderate,1,Good,14,Good,0,Good,81,Moderate,9.4667,123.1167,3,core,LOW,113.0
Philippines,Pamplona,81,Moderate,1,Good,14,Good,0,Good,81,Moderate,13.5925,123.0833,0,core,LOW,83.0
Cuba,Baracoa,81,Moderate,1,Good,40,Good,0,Good,81,Moderate,20.3486,-74.5106,-1,noise,NOISE,-1.0
Ghana,Cape Coast,81,Moderate,1,Good,21,Good,0,Good,81,Moderate,5.1,-1.25,45,core,LOW,65.0
Philippines,Kabankalan,81,Moderate,1,Good,16,Good,0,Good,81,Moderate,9.9833,122.8167,3,core,LOW,113.0
Switzerland,Steffisburg,80,Moderate,1,Good,33,Good,1,Good,80,Moderate,46.7667,7.6333,1,core,LOW,146.0
Benin,Abomey,80,Moderate,1,Good,21,Good,1,Good,80,Moderate,7.1856,1.9881,-1,noise,NOISE,-1.0
Iran (Islamic Republic of),Astara,80,Moderate,1,Good,45,Good,0,Good,80,Moderate,38.4561,48.8786,-1,noise,NOISE,-1.0
Ghana,Prestea,80,Moderate,1,Good,16,Good,0,Good,80,Moderate,5.4333,-2.15,-1,noise,NOISE,-1.0
Israel,Qiryat Gat,80,Moderate,1,Good,62,Moderate,4,Good,80,Moderate,31.6061,34.7717,34,core,LOW,8.0
Mexico,Montemorelos,80,Moderate,1,Good,11,Good,2,Good,80,Moderate,25.1872,-99.8267,70,core,LOW,82.0
United States of America,Sun City West,80,Moderate,1,Good,25,Good,6,Good,80,Moderate,33.6695,-112.3573,68,core,LOW,50.0
Poland,Katowice,80,Moderate,1,Good,36,Good,4,Good,80,Moderate,50.2667,19.0167,1,core,LOW,146.0
Serbia,Temerin,80,Moderate,1,Good,40,Good,2,Good,80,Moderate,45.4167,19.8833,1,core,LOW,146.0
United States of America,Alabaster,80,Moderate,1,Good,18,Good,10,Good,80,Moderate,33.2198,-86.8225,71,core,LOW,42.0
Malaysia,Kluang,80,Moderate,1,Good,38,Good,0,Good,80,Moderate,2.0336,103.3194,-1,noise,NOISE,-1.0
Israel,Netanya,80,Moderate,1,Good,48,Good,4,Good,80,Moderate,32.3286,34.8567,34,core,LOW,8.0
Republic of North Macedonia,Resen,80,Moderate,1,Good,45,Good,1,Good,80,Moderate,41.0893,21.0109,1,core,LOW,146.0
Philippines,Carmen,80,Moderate,1,Good,26,Good,0,Good,80,Moderate,18.4167,-91.6333,-1,noise,NOISE,-1.0
Mexico,Hermosillo,80,Moderate,1,Good,26,Good,0,Good,80,Moderate,29.0989,-110.9542,-1,noise,NOISE,-1.0
United States of America,Hoover,80,Moderate,1,Good,16,Good,11,Good,80,Moderate,33.3763,-86.8068,71,core,LOW,42.0
Ukraine,Boryslav,80,Moderate,1,Good,41,Good,0,Good,80,Moderate,49.2881,23.4267,16,core,LOW,37.0
United States of America,Nashville,80,Moderate,1,Good,31,Good,4,Good,80,Moderate,36.1715,-86.7842,72,core,LOW,90.0
Kazakhstan,Esil,80,Moderate,1,Good,27,Good,0,Good,80,Moderate,51.9556,66.4042,-1,noise,NOISE,-1.0
Germany,Hoyerswerda,80,Moderate,1,Good,36,Good,2,Good,80,Moderate,51.4333,14.25,1,core,LOW,146.0
Philippines,Carmen,80,Moderate,1,Good,26,Good,0,Good,80,Moderate,7.2,124.7833,3,core,LOW,113.0
Philippines,Carmen,80,Moderate,1,Good,26,Good,0,Good,80,Moderate,7.3606,125.7064,3,core,LOW,113.0
Philippines,Carmen,80,Moderate,1,Good,26,Good,0,Good,80,Moderate,9.8167,124.2,3,core,LOW,113.0
Philippines,Carmen,80,Moderate,1,Good,26,Good,0,Good,80,Moderate,9.2289,126.0167,3,core,LOW,113.0
Philippines,Carmen,80,Moderate,1,Good,26,Good,0,Good,80,Moderate,8.9999,125.2648,3,core,LOW,113.0
United States of America,Hueytown,80,Moderate,1,Good,17,Good,11,Good,80,Moderate,33.4239,-87.022,71,core,LOW,42.0
United States of America,Trussville,80,Moderate,1,Good,18,Good,9,Good,80,Moderate,33.6405,-86.5815,71,core,LOW,42.0
Poland,Gorlice,80,Moderate,1,Good,31,Good,2,Good,80,Moderate,49.6547,21.1597,1,core,LOW,146.0
United States of America,Tucson,80,Moderate,1,Good,20,Good,6,Good,80,Moderate,32.1541,-110.8787,68,core,LOW,50.0
Burkina Faso,Kongoussi,80,Moderate,1,Good,37,Good,0,Good,80,Moderate,13.3333,-1.5333,-1,noise,NOISE,-1.0
United States of America,Casa Grande,80,Moderate,1,Good,14,Good,9,Good,80,Moderate,32.9069,-111.7624,68,core,LOW,50.0
Switzerland,Lyss,80,Moderate,1,Good,29,Good,1,Good,80,Moderate,47.0667,7.3,1,core,LOW,146.0
Italy,Agliana,80,Moderate,1,Good,39,Good,4,Good,80,Moderate,43.9,11.0,5,core,LOW,61.0
United States of America,Hobe Sound,80,Moderate,1,Good,22,Good,7,Good,80,Moderate,27.0729,-80.1425,62,core,LOW,123.0
United States of America,El Dorado,79,Moderate,1,Good,26,Good,3,Good,79,Moderate,6.7167,-61.6167,-1,noise,NOISE,-1.0
United States of America,El Dorado,79,Moderate,1,Good,26,Good,3,Good,79,Moderate,37.821,-96.8613,73,core,LOW,119.0
United States of America,El Dorado,79,Moderate,1,Good,26,Good,3,Good,79,Moderate,33.2184,-92.664,74,core,LOW,27.0
United States of America,El Dorado,79,Moderate,1,Good,26,Good,3,Good,79,Moderate,24.3228,-107.363,-1,noise,NOISE,-1.0
Hungary,Zalaegerszeg,79,Moderate,1,Good,39,Good,1,Good,79,Moderate,46.8392,16.8511,1,core,LOW,146.0
Uzbekistan,Boysun,79,Moderate,1,Good,48,Good,0,Good,79,Moderate,38.2,67.2,-1,noise,NOISE,-1.0
Honduras,San Pedro Sula,79,Moderate,1,Good,9,Good,2,Good,79,Moderate,15.5,-88.0333,75,core,LOW,28.0
Ethiopia,Finote Selam,79,Moderate,1,Good,18,Good,0,Good,79,Moderate,10.7,37.2667,-1,noise,NOISE,-1.0
Ethiopia,Dabat,79,Moderate,1,Good,16,Good,1,Good,79,Moderate,12.9842,37.765,-1,noise,NOISE,-1.0
Turkey,Siirt,79,Moderate,1,Good,29,Good,2,Good,79,Moderate,37.925,41.9458,51,core,LOW,18.0
Honduras,Tela,79,Moderate,1,Good,21,Good,0,Good,79,Moderate,15.7833,-87.4667,75,core,LOW,28.0
Azerbaijan,Baku,79,Moderate,1,Good,46,Good,0,Good,79,Moderate,40.3667,49.8352,30,core,LOW,3.0
Slovakia,Trnava,79,Moderate,1,Good,41,Good,1,Good,79,Moderate,48.3775,17.5883,1,core,LOW,146.0
Germany,Radeberg,79,Moderate,1,Good,35,Good,2,Good,79,Moderate,51.1167,13.9167,1,core,LOW,146.0
United States of America,Russellville,79,Moderate,1,Good,23,Good,4,Good,79,Moderate,35.2762,-93.1383,-1,noise,NOISE,-1.0
United States of America,Goodlettsville,79,Moderate,1,Good,32,Good,4,Good,79,Moderate,36.333,-86.7026,72,core,LOW,90.0
,Alvarado,79,Moderate,1,Good,20,Good,1,Good,79,Moderate,18.7811,-95.7572,-1,noise,NOISE,-1.0
India,Kottayam,79,Moderate,1,Good,23,Good,1,Good,79,Moderate,9.5947,76.4856,57,core,LOW,2.0
United States of America,Snyder,79,Moderate,1,Good,29,Good,0,Good,79,Moderate,32.7133,-100.9116,-1,noise,NOISE,-1.0
Italy,Carbonia,79,Moderate,1,Good,38,Good,0,Good,79,Moderate,39.1672,8.5222,76,core,LOW,99.0
Italy,Caselle Torinese,79,Moderate,1,Good,55,Moderate,0,Good,79,Moderate,45.1775,7.6464,5,core,LOW,61.0
United States of America,Van Buren,79,Moderate,1,Good,25,Good,3,Good,79,Moderate,43.1211,-76.3591,77,core,LOW,141.0
United States of America,Van Buren,79,Moderate,1,Good,25,Good,3,Good,79,Moderate,35.4483,-94.3528,78,core,LOW,20.0
India,Tambaram,79,Moderate,1,Good,30,Good,1,Good,79,Moderate,12.831,80.0459,-1,noise,NOISE,-1.0
Ghana,Kumasi,79,Moderate,1,Good,18,Good,0,Good,79,Moderate,6.6667,-1.6167,45,core,LOW,65.0
Italy,Castelfranco Emilia,79,Moderate,1,Good,29,Good,7,Good,79,Moderate,44.5967,11.0528,5,core,LOW,61.0
United States of America,Russellville,79,Moderate,1,Good,23,Good,4,Good,79,Moderate,34.5055,-87.7283,72,core,LOW,90.0
Serbia,Mladenovac,79,Moderate,1,Good,38,Good,2,Good,79,Moderate,44.4333,20.7,1,core,LOW,146.0
Egypt,Suez,79,Moderate,1,Good,58,Moderate,2,Good,79,Moderate,29.9667,32.55,-1,noise,NOISE,-1.0
Poland,Kielce,79,Moderate,1,Good,36,Good,1,Good,79,Moderate,50.8742,20.6333,1,border,LOW,146.0
United States of America,Alexander City,79,Moderate,1,Good,27,Good,3,Good,79,Moderate,32.9229,-85.9358,71,border,LOW,42.0
,Alvarado,79,Moderate,1,Good,20,Good,1,Good,79,Moderate,4.5667,-74.95,166,border,LOW,81.0
Czechia,Humpolec,79,Moderate,1,Good,37,Good,1,Good,79,Moderate,49.5417,15.3572,1,core,LOW,146.0
Ukraine,Chortkiv,79,Moderate,1,Good,33,Good,1,Good,79,Moderate,49.0167,25.8,16,core,LOW,37.0
Ghana,Nkawkaw,79,Moderate,1,Good,19,Good,0,Good,79,Moderate,6.55,-0.7667,45,core,LOW,65.0
Mali,Kati,79,Moderate,1,Good,23,Good,0,Good,79,Moderate,12.7504,-8.08,-1,noise,NOISE,-1.0
Israel,Bet Shemesh,78,Moderate,1,Good,44,Good,5,Good,78,Moderate,31.7456,34.9867,34,core,LOW,8.0
Ukraine,Kalynivka,78,Moderate,1,Good,36,Good,1,Good,78,Moderate,49.4472,28.5231,44,core,LOW,88.0
United States of America,Alamogordo,78,Moderate,1,Good,31,Good,0,Good,78,Moderate,32.8837,-105.9625,-1,noise,NOISE,-1.0
Germany,Riedlingen,78,Moderate,1,Good,28,Good,3,Good,78,Moderate,48.1553,9.4728,1,core,LOW,146.0
Philippines,Santa Catalina,78,Moderate,1,Good,16,Good,0,Good,78,Moderate,10.6039,-75.2878,9,core,LOW,17.0
Indonesia,Batu,78,Moderate,1,Good,35,Good,1,Good,78,Moderate,-7.872,112.525,21,core,LOW,13.0
United States of America,Conway,78,Moderate,1,Good,23,Good,4,Good,78,Moderate,35.0753,-92.4692,79,core,LOW,22.0
United States of America,Conway,78,Moderate,1,Good,23,Good,4,Good,78,Moderate,33.8401,-79.0431,80,core,LOW,35.0
Philippines,Medellin,78,Moderate,1,Good,31,Good,0,Good,78,Moderate,11.1286,123.9622,3,core,LOW,113.0
Ukraine,Borshchiv,78,Moderate,1,Good,34,Good,1,Good,78,Moderate,48.8024,26.04,16,core,LOW,37.0
Philippines,Santa Catalina,78,Moderate,1,Good,16,Good,0,Good,78,Moderate,9.3331,122.8658,3,core,LOW,113.0
Philippines,Santa Catalina,78,Moderate,1,Good,16,Good,0,Good,78,Moderate,17.5917,120.3644,0,core,LOW,83.0
Italy,Canelli,78,Moderate,1,Good,37,Good,3,Good,78,Moderate,44.7208,8.2928,5,core,LOW,61.0
United Kingdom of Great Britain and Northern Ireland,George Town,78,Moderate,1,Good,27,Good,0,Good,78,Moderate,5.4144,100.3292,-1,noise,NOISE,-1.0
United Kingdom of Great Britain and Northern Ireland,George Town,78,Moderate,1,Good,27,Good,0,Good,78,Moderate,19.2866,-81.3744,-1,noise,NOISE,-1.0
United States of America,Dickson,78,Moderate,1,Good,28,Good,3,Good,78,Moderate,36.0637,-87.3665,72,core,LOW,90.0
Italy,Venaria Reale,78,Moderate,1,Good,57,Moderate,0,Good,78,Moderate,45.1167,7.6333,5,core,LOW,61.0
Honduras,Choloma,78,Moderate,1,Good,11,Good,2,Good,78,Moderate,15.6136,-87.9511,75,core,LOW,28.0
Italy,Varedo,78,Moderate,1,Good,43,Good,2,Good,78,Moderate,45.6,9.1667,5,core,LOW,61.0
Italy,Gorizia,78,Moderate,1,Good,47,Good,0,Good,78,Moderate,45.9333,13.6167,5,core,LOW,61.0
Serbia,Negotin,78,Moderate,1,Good,36,Good,3,Good,78,Moderate,44.2167,22.5167,81,core,LOW,31.0
Italy,Francavilla Fontana,78,Moderate,1,Good,44,Good,3,Good,78,Moderate,40.5333,17.5833,5,core,LOW,61.0
Iran (Islamic Republic of),Sanandaj,78,Moderate,1,Good,38,Good,0,Good,78,Moderate,35.3144,46.9922,-1,noise,NOISE,-1.0
Cuba,Bayamo,78,Moderate,1,Good,15,Good,5,Good,78,Moderate,20.3817,-76.6428,17,core,LOW,26.0
United States of America,Norman,78,Moderate,1,Good,28,Good,2,Good,78,Moderate,35.2335,-97.3471,31,core,LOW,58.0
Colombia,Barrancas,78,Moderate,1,Good,27,Good,0,Good,78,Moderate,11.0,-72.75,64,core,LOW,16.0
Czechia,Neratovice,78,Moderate,1,Good,43,Good,2,Good,78,Moderate,50.2593,14.5177,1,core,LOW,146.0
Poland,Prudnik,78,Moderate,1,Good,37,Good,3,Good,78,Moderate,50.3228,17.5767,1,core,LOW,146.0
Brazil,Laranjal Paulista,78,Moderate,1,Good,33,Good,1,Good,78,Moderate,-23.0118,-47.8657,82,core,LOW,165.0
Uganda,Hima,78,Moderate,1,Good,19,Good,0,Good,78,Moderate,0.2906,30.1775,83,core,LOW,15.0
Mexico,Hidalgo,78,Moderate,1,Good,22,Good,0,Good,78,Moderate,26.109,-98.2464,84,core,LOW,307.0
Germany,Pirna,78,Moderate,1,Good,35,Good,2,Good,78,Moderate,50.9622,13.9403,1,core,LOW,146.0
Chad,Pala,78,Moderate,1,Good,14,Good,0,Good,78,Moderate,9.3646,14.9073,-1,noise,NOISE,-1.0
Bulgaria,Samokov,78,Moderate,1,Good,46,Good,0,Good,78,Moderate,42.3371,23.5554,1,core,LOW,146.0
United States of America,Conway,78,Moderate,1,Good,23,Good,4,Good,78,Moderate,44.0085,-71.0719,40,core,LOW,169.0
United States of America,Conway,78,Moderate,1,Good,23,Good,4,Good,78,Moderate,28.4968,-81.3316,62,core,LOW,123.0
Cuba,Yara,77,Moderate,1,Good,19,Good,3,Good,77,Moderate,20.2767,-76.9469,17,core,LOW,26.0
Italy,Limbiate,77,Moderate,1,Good,43,Good,4,Good,77,Moderate,45.5972,9.13,5,core,LOW,61.0
Sri Lanka,Kurunegala,77,Moderate,1,Good,17,Good,4,Good,77,Moderate,7.4833,80.3667,-1,noise,NOISE,-1.0
United States of America,Millington,77,Moderate,1,Good,43,Good,3,Good,77,Moderate,35.335,-89.8991,85,core,LOW,24.0
United States of America,Portales,77,Moderate,1,Good,34,Good,0,Good,77,Moderate,34.1754,-103.3565,-1,noise,NOISE,-1.0
Germany,Heidenau,77,Moderate,1,Good,35,Good,2,Good,77,Moderate,50.9833,13.8667,1,core,LOW,146.0
Slovenia,Nova Gorica,77,Moderate,1,Good,47,Good,0,Good,77,Moderate,45.9558,13.6433,5,core,LOW,61.0
United States of America,Millville,77,Moderate,1,Good,54,Moderate,2,Good,77,Moderate,39.3903,-75.0561,40,core,LOW,169.0
Israel,Gan Yavne,77,Moderate,1,Good,43,Good,6,Good,77,Moderate,31.7886,34.7053,34,core,LOW,8.0
Ghana,Aflao,77,Moderate,1,Good,23,Good,0,Good,77,Moderate,6.1468,1.1799,-1,noise,NOISE,-1.0
United States of America,Homestead,77,Moderate,1,Good,12,Good,11,Good,77,Moderate,25.4665,-80.4472,62,core,LOW,123.0
Czechia,Znojmo,77,Moderate,1,Good,37,Good,1,Good,77,Moderate,48.8556,16.0489,1,core,LOW,146.0
Poland,Sanok,77,Moderate,1,Good,39,Good,0,Good,77,Moderate,49.55,22.2167,1,core,LOW,146.0
United States of America,Paducah,77,Moderate,1,Good,49,Good,3,Good,77,Moderate,37.0711,-88.644,86,core,LOW,6.0
Republic of North Macedonia,Kriva Palanka,77,Moderate,1,Good,46,Good,0,Good,77,Moderate,42.2017,22.3317,1,core,LOW,146.0
Italy,Beinasco,77,Moderate,1,Good,54,Moderate,0,Good,77,Moderate,45.0167,7.5833,5,core,LOW,61.0
Italy,Grugliasco,77,Moderate,1,Good,55,Moderate,0,Good,77,Moderate,45.068,7.5776,5,core,LOW,61.0
Brazil,Capivari,77,Moderate,1,Good,33,Good,1,Good,77,Moderate,-22.995,-47.5078,82,core,LOW,165.0
Philippines,Urdaneta,77,Moderate,1,Good,26,Good,1,Good,77,Moderate,15.9761,120.5711,0,core,LOW,83.0
Bulgaria,Ihtiman,77,Moderate,1,Good,42,Good,2,Good,77,Moderate,42.4374,23.8164,1,core,LOW,146.0
Democratic Republic of the Congo,Kambove,77,Moderate,1,Good,30,Good,1,Good,77,Moderate,-10.8764,26.5969,-1,noise,NOISE,-1.0
Tajikistan,Vakhsh,77,Moderate,1,Good,46,Good,0,Good,77,Moderate,37.7108,68.8311,-1,noise,NOISE,-1.0
India,Sattenapalle,77,Moderate,1,Good,49,Good,0,Good,77,Moderate,16.3962,80.1497,35,core,LOW,14.0
Poland,Nowy Targ,77,Moderate,1,Good,36,Good,1,Good,77,Moderate,49.4667,20.0167,1,core,LOW,146.0
Mexico,Saucillo,77,Moderate,1,Good,31,Good,0,Good,77,Moderate,28.0333,-105.2833,87,core,LOW,78.0
Bulgaria,Vidin,77,Moderate,1,Good,35,Good,3,Good,77,Moderate,44.0,22.8667,81,core,LOW,31.0
Lesotho,Quthing,77,Moderate,1,Good,9,Good,2,Good,77,Moderate,-30.4001,27.7002,-1,noise,NOISE,-1.0
Togo,Sotouboua,77,Moderate,1,Good,19,Good,0,Good,77,Moderate,8.5667,0.9833,-1,noise,NOISE,-1.0
Cuba,Campechuela,77,Moderate,1,Good,24,Good,2,Good,77,Moderate,20.2333,-77.2792,17,core,LOW,26.0
Eritrea,Barentu,76,Moderate,1,Good,28,Good,0,Good,76,Moderate,15.1167,37.6,-1,noise,NOISE,-1.0
Italy,Casalpusterlengo,76,Moderate,1,Good,34,Good,5,Good,76,Moderate,45.1778,9.65,5,core,LOW,61.0
France,Dourdan,76,Moderate,1,Good,38,Good,2,Good,76,Moderate,48.5289,2.0108,1,core,LOW,146.0
Honduras,El Progreso,76,Moderate,1,Good,22,Good,0,Good,76,Moderate,14.35,-89.85,43,core,LOW,97.0
Italy,San Giuliano Terme,76,Moderate,1,Good,42,Good,4,Good,76,Moderate,43.7625,10.4414,5,core,LOW,61.0
Serbia,Veternik,76,Moderate,1,Good,40,Good,2,Good,76,Moderate,45.2533,19.7608,1,core,LOW,146.0
Honduras,El Progreso,76,Moderate,1,Good,22,Good,0,Good,76,Moderate,15.4,-87.8,75,core,LOW,28.0
Bulgaria,Asenovgrad,76,Moderate,1,Good,43,Good,0,Good,76,Moderate,42.0167,24.8667,1,core,LOW,146.0
Czechia,Kladno,76,Moderate,1,Good,40,Good,3,Good,76,Moderate,50.15,14.1,1,core,LOW,146.0
Italy,Maniago,76,Moderate,1,Good,47,Good,0,Good,76,Moderate,46.1667,12.7167,5,core,LOW,61.0
Ghana,Accra,76,Moderate,1,Good,20,Good,1,Good,76,Moderate,5.55,-0.2,45,core,LOW,65.0
United States of America,Sylacauga,76,Moderate,1,Good,17,Good,5,Good,76,Moderate,33.178,-86.2605,71,core,LOW,42.0
Thailand,Sukhothai,76,Moderate,1,Good,24,Good,0,Good,76,Moderate,17.0,99.8167,-1,noise,NOISE,-1.0
Italy,Imola,76,Moderate,1,Good,37,Good,2,Good,76,Moderate,44.3531,11.7147,5,core,LOW,61.0
United States of America,Vandalia,76,Moderate,1,Good,40,Good,5,Good,76,Moderate,39.8791,-84.193,20,core,LOW,164.0
Italy,Macerata,76,Moderate,1,Good,59,Moderate,0,Good,76,Moderate,43.3003,13.4533,5,core,LOW,61.0
South Africa,Bloemfontein,76,Moderate,1,Good,15,Good,4,Good,76,Moderate,-29.1167,26.2167,-1,noise,NOISE,-1.0
Poland,Radomsko,76,Moderate,1,Good,39,Good,1,Good,76,Moderate,51.0667,19.45,-1,noise,NOISE,-1.0
Germany,Marktoberdorf,76,Moderate,1,Good,32,Good,3,Good,76,Moderate,47.7667,10.6167,1,core,LOW,146.0
Venezuela (Bolivarian Republic of),Guanare,76,Moderate,1,Good,10,Good,2,Good,76,Moderate,9.0436,-69.7489,-1,noise,NOISE,-1.0
France,Noyon,76,Moderate,1,Good,31,Good,3,Good,76,Moderate,49.5811,2.9989,1,core,LOW,146.0
Hungary,Dorog,76,Moderate,1,Good,36,Good,2,Good,76,Moderate,47.7194,18.7292,1,core,LOW,146.0
Slovakia,Hlohovec,76,Moderate,1,Good,41,Good,1,Good,76,Moderate,48.4333,17.8033,1,core,LOW,146.0
Bosnia and Herzegovina,Bijeljina,76,Moderate,1,Good,35,Good,2,Good,76,Moderate,44.75,19.2167,1,core,LOW,146.0
Ukraine,Yavoriv,76,Moderate,1,Good,44,Good,0,Good,76,Moderate,49.9469,23.3931,16,core,LOW,37.0
Azerbaijan,Qusar,76,Moderate,1,Good,33,Good,0,Good,76,Moderate,41.4264,48.4356,88,core,LOW,93.0
Serbia,Ruma,76,Moderate,1,Good,40,Good,3,Good,76,Moderate,45.0,19.8333,1,core,LOW,146.0
Colombia,Santa Marta,75,Moderate,1,Good,13,Good,0,Good,75,Moderate,11.2419,-74.2053,9,border,LOW,17.0
Italy,Badia Polesine,75,Moderate,1,Good,41,Good,2,Good,75,Moderate,45.1,11.5,5,core,LOW,61.0
Slovenia,Novo Mesto,75,Moderate,1,Good,48,Good,0,Good,75,Moderate,45.8,15.1667,1,core,LOW,146.0
Cuba,Cueto,75,Moderate,1,Good,15,Good,8,Good,75,Moderate,20.6481,-75.9317,17,core,LOW,26.0
Slovenia,Ptuj,75,Moderate,1,Good,44,Good,2,Good,75,Moderate,46.4194,15.8694,1,core,LOW,146.0
Austria,Marchtrenk,75,Moderate,1,Good,54,Moderate,0,Good,75,Moderate,48.1917,14.1106,1,core,LOW,146.0
Israel,Gedera,75,Moderate,1,Good,46,Good,5,Good,75,Moderate,31.8139,34.7783,34,core,LOW,8.0
Germany,Schmallenberg,75,Moderate,1,Good,36,Good,4,Good,75,Moderate,51.149,8.2845,1,core,LOW,146.0
Hungary,Tolna,75,Moderate,1,Good,34,Good,2,Good,75,Moderate,46.4236,18.7903,1,core,LOW,146.0
Philippines,Binalbagan,75,Moderate,1,Good,18,Good,0,Good,75,Moderate,10.2,122.8667,3,core,LOW,113.0
Italy,Cerro Maggiore,75,Moderate,1,Good,33,Good,6,Good,75,Moderate,45.6,8.95,5,core,LOW,61.0
United States of America,Gardendale,75,Moderate,1,Good,32,Good,7,Good,75,Moderate,33.6677,-86.8069,71,core,LOW,42.0
Philippines,Bongabon,75,Moderate,1,Good,29,Good,0,Good,75,Moderate,15.6321,121.1448,0,core,LOW,83.0
Italy,Legnano,75,Moderate,1,Good,33,Good,6,Good,75,Moderate,45.5781,8.9183,5,core,LOW,61.0
Malaysia,Kuala Terengganu,75,Moderate,1,Good,40,Good,0,Good,75,Moderate,5.3292,103.1361,-1,noise,NOISE,-1.0
Turkey,Afyonkarahisar,75,Moderate,1,Good,36,Good,0,Good,75,Moderate,38.7578,30.5386,-1,noise,NOISE,-1.0
Italy,Ghedi,75,Moderate,1,Good,34,Good,4,Good,75,Moderate,45.402,10.2803,5,core,LOW,61.0
Indonesia,Banjar,75,Moderate,1,Good,46,Good,0,Good,75,Moderate,-7.3667,108.5333,89,core,LOW,47.0
Slovakia,Prievidza,75,Moderate,1,Good,42,Good,0,Good,75,Moderate,48.7711,18.6217,1,core,LOW,146.0
Honduras,Olanchito,75,Moderate,1,Good,14,Good,0,Good,75,Moderate,15.4833,-86.5833,75,border,LOW,28.0
Czechia,Blansko,75,Moderate,1,Good,37,Good,1,Good,75,Moderate,49.3631,16.6431,1,core,LOW,146.0
Austria,Wels,75,Moderate,1,Good,55,Moderate,0,Good,75,Moderate,48.15,14.0167,1,core,LOW,146.0
Italy,Iesolo,75,Moderate,1,Good,42,Good,2,Good,75,Moderate,45.5331,12.6448,5,core,LOW,61.0
Poland,Krapkowice,75,Moderate,1,Good,38,Good,1,Good,75,Moderate,50.4667,17.9667,1,core,LOW,146.0
Italy,Recco,75,Moderate,1,Good,43,Good,3,Good,75,Moderate,44.3667,9.15,5,core,LOW,61.0
United States of America,Huntsville,75,Moderate,1,Good,21,Good,5,Good,75,Moderate,30.7009,-95.5567,-1,noise,NOISE,-1.0
United States of America,Huntsville,75,Moderate,1,Good,21,Good,5,Good,75,Moderate,45.3333,-79.2167,-1,noise,NOISE,-1.0
United States of America,River Ridge,75,Moderate,1,Good,19,Good,8,Good,75,Moderate,29.9593,-90.2202,52,core,LOW,56.0
Ukraine,Chernivtsi,75,Moderate,1,Good,37,Good,1,Good,75,Moderate,48.3,25.9333,16,core,LOW,37.0
United States of America,Huntsville,75,Moderate,1,Good,21,Good,5,Good,75,Moderate,34.6981,-86.6412,90,core,LOW,66.0
Philippines,Taal,75,Moderate,1,Good,21,Good,6,Good,75,Moderate,13.8833,120.9333,0,core,LOW,83.0
Brazil,Indaiatuba,75,Moderate,1,Good,32,Good,1,Good,75,Moderate,-23.0903,-47.2181,82,core,LOW,165.0
Ukraine,Khotyn,75,Moderate,1,Good,37,Good,1,Good,75,Moderate,48.5078,26.486,16,core,LOW,37.0
Canada,Edmundston,75,Moderate,1,Good,30,Good,0,Good,75,Moderate,47.3765,-68.3253,-1,noise,NOISE,-1.0
Israel,Bat Yam,75,Moderate,1,Good,48,Good,4,Good,75,Moderate,32.0167,34.75,34,core,LOW,8.0
Italy,Carpenedolo,75,Moderate,1,Good,35,Good,4,Good,75,Moderate,45.3654,10.4323,5,core,LOW,61.0
,Probolinggo,75,Moderate,1,Good,42,Good,1,Good,75,Moderate,-7.75,113.2167,21,border,LOW,13.0
France,Laxou,75,Moderate,1,Good,54,Moderate,0,Good,75,Moderate,48.6856,6.1522,1,core,LOW,146.0
United States of America,Tahlequah,75,Moderate,1,Good,26,Good,3,Good,75,Moderate,35.9112,-94.977,49,core,LOW,32.0
Armenia,Gyumri,75,Moderate,1,Good,39,Good,0,Good,75,Moderate,40.7894,43.8475,19,core,LOW,142.0
Italy,Ascoli Piceno,75,Moderate,1,Good,35,Good,5,Good,75,Moderate,42.85,13.5833,5,core,LOW,61.0
Poland,Nowa Ruda,74,Moderate,1,Good,39,Good,1,Good,74,Moderate,50.5833,16.5,1,core,LOW,146.0
Italy,Gardone Val Trompia,74,Moderate,1,Good,30,Good,3,Good,74,Moderate,45.6833,10.1833,5,core,LOW,61.0
Dominican Republic,Moca,74,Moderate,1,Good,12,Good,10,Good,74,Moderate,19.3833,-70.5167,8,core,LOW,9.0
,Albenga,74,Moderate,1,Good,45,Good,1,Good,74,Moderate,44.05,8.2167,5,core,LOW,61.0
Italy,Piossasco,74,Moderate,1,Good,49,Good,0,Good,74,Moderate,44.9906,7.4637,5,core,LOW,61.0
Venezuela (Bolivarian Republic of),Caraballeda,74,Moderate,1,Good,43,Good,1,Good,74,Moderate,10.6167,-66.85,54,core,LOW,103.0
Brazil,Botucatu,74,Moderate,1,Good,21,Good,1,Good,74,Moderate,-22.8858,-48.445,82,core,LOW,165.0
Malaysia,Raub,74,Moderate,1,Good,35,Good,0,Good,74,Moderate,3.7931,101.8569,-1,noise,NOISE,-1.0
United States of America,West Memphis,74,Moderate,1,Good,60,Moderate,2,Good,74,Moderate,35.153,-90.1996,85,core,LOW,24.0
Philippines,Kawit,74,Moderate,1,Good,28,Good,4,Good,74,Moderate,14.4333,120.9,0,core,LOW,83.0
Uganda,Gulu,74,Moderate,1,Good,19,Good,0,Good,74,Moderate,2.7817,32.2992,-1,noise,NOISE,-1.0
Chad,Biltine,74,Moderate,1,Good,25,Good,0,Good,74,Moderate,14.5275,20.9267,-1,noise,NOISE,-1.0
India,Ratnagiri,74,Moderate,1,Good,23,Good,2,Good,74,Moderate,13.8111,77.1301,91,core,LOW,79.0
Slovakia,Stropkov,74,Moderate,1,Good,42,Good,0,Good,74,Moderate,49.205,21.6514,1,core,LOW,146.0
Mali,Markala,74,Moderate,1,Good,16,Good,0,Good,74,Moderate,13.6739,-6.075,-1,noise,NOISE,-1.0
Israel,Qiryat Ono,74,Moderate,1,Good,46,Good,5,Good,74,Moderate,32.0636,34.8553,34,core,LOW,8.0
Czechia,Krupka,74,Moderate,1,Good,37,Good,2,Good,74,Moderate,50.6846,13.8583,1,core,LOW,146.0
United States of America,Piqua,74,Moderate,1,Good,42,Good,4,Good,74,Moderate,40.1506,-84.2441,20,core,LOW,164.0
Italy,San Giovanni Valdarno,74,Moderate,1,Good,45,Good,1,Good,74,Moderate,43.5644,11.5328,5,core,LOW,61.0
Serbia,Futog,74,Moderate,1,Good,40,Good,2,Good,74,Moderate,45.2333,19.7167,1,core,LOW,146.0
Italy,Concordia Sagittaria,74,Moderate,1,Good,32,Good,4,Good,74,Moderate,45.7667,12.85,5,core,LOW,61.0
Mexico,Los Mochis,74,Moderate,1,Good,17,Good,2,Good,74,Moderate,25.7835,-108.9937,-1,noise,NOISE,-1.0
Russian Federation,Mozdok,74,Moderate,1,Good,44,Good,0,Good,74,Moderate,43.7333,44.7,92,core,LOW,187.0
Bosnia and Herzegovina,Doboj,74,Moderate,1,Good,34,Good,1,Good,74,Moderate,44.7333,18.1333,1,core,LOW,146.0
Russian Federation,Akhty,74,Moderate,1,Good,34,Good,0,Good,74,Moderate,41.4647,47.74,88,core,LOW,93.0
France,Courcouronnes,74,Moderate,1,Good,44,Good,1,Good,74,Moderate,48.6239,2.4294,1,core,LOW,146.0
Germany,Pocking,74,Moderate,1,Good,61,Moderate,0,Good,74,Moderate,48.4,13.3167,1,core,LOW,146.0
Burkina Faso,Yako,74,Moderate,1,Good,34,Good,0,Good,74,Moderate,12.9667,-2.2667,131,border,LOW,7.0
Italy,Rubiera,74,Moderate,1,Good,29,Good,6,Good,74,Moderate,44.65,10.7833,5,core,LOW,61.0
Poland,Cieszyn,74,Moderate,1,Good,40,Good,2,Good,74,Moderate,49.75,18.6333,1,core,LOW,146.0
United States of America,Benton,74,Moderate,1,Good,24,Good,4,Good,74,Moderate,34.5776,-92.5713,79,core,LOW,22.0
Kazakhstan,Shymkent,74,Moderate,1,Good,46,Good,0,Good,74,Moderate,42.3167,69.5958,-1,noise,NOISE,-1.0
Poland,Przeworsk,74,Moderate,1,Good,39,Good,1,Good,74,Moderate,50.0667,22.5,1,border,LOW,146.0
Honduras,La Paz,74,Moderate,1,Good,4,Good,4,Good,74,Moderate,10.8911,124.9572,3,core,LOW,113.0
Honduras,La Paz,74,Moderate,1,Good,4,Good,4,Good,74,Moderate,8.2801,125.8092,3,core,LOW,113.0
Honduras,La Paz,74,Moderate,1,Good,4,Good,4,Good,74,Moderate,-30.75,-59.65,93,core,LOW,128.0
Romania,Salonta,74,Moderate,1,Good,25,Good,3,Good,74,Moderate,46.8,21.65,1,core,LOW,146.0
Honduras,La Paz,74,Moderate,1,Good,4,Good,4,Good,74,Moderate,-33.4667,-67.55,-1,noise,NOISE,-1.0
Mexico,Matamoros,74,Moderate,1,Good,29,Good,1,Good,74,Moderate,25.533,-103.25,-1,noise,NOISE,-1.0
Honduras,La Paz,74,Moderate,1,Good,4,Good,4,Good,74,Moderate,-16.5,-68.15,-1,noise,NOISE,-1.0
Honduras,La Paz,74,Moderate,1,Good,4,Good,4,Good,74,Moderate,17.6739,120.6847,0,core,LOW,83.0
Honduras,La Paz,74,Moderate,1,Good,4,Good,4,Good,74,Moderate,14.3169,-87.6831,43,core,LOW,97.0
Honduras,La Paz,74,Moderate,1,Good,4,Good,4,Good,74,Moderate,-34.7617,-56.2233,94,core,LOW,153.0
Czechia,Liberec,74,Moderate,1,Good,39,Good,1,Good,74,Moderate,50.7667,15.0667,1,core,LOW,146.0
Honduras,La Paz,74,Moderate,1,Good,4,Good,4,Good,74,Moderate,24.1422,-110.3108,-1,noise,NOISE,-1.0
Honduras,La Paz,74,Moderate,1,Good,4,Good,4,Good,74,Moderate,15.4431,120.7289,0,core,LOW,83.0
Israel,Nahariyya,74,Moderate,1,Good,45,Good,7,Good,74,Moderate,33.0058,35.0989,34,core,LOW,8.0
Romania,Pecica,74,Moderate,1,Good,35,Good,1,Good,74,Moderate,46.17,21.07,1,core,LOW,146.0
France,Limoges,74,Moderate,1,Good,29,Good,2,Good,74,Moderate,45.8353,1.2625,-1,noise,NOISE,-1.0
Syrian Arab Republic,Aleppo,73,Moderate,1,Good,48,Good,0,Good,73,Moderate,36.2,37.16,6,core,LOW,12.0
Poland,Brzesko,73,Moderate,1,Good,36,Good,2,Good,73,Moderate,49.9667,20.6167,1,core,LOW,146.0
Colombia,Yarumal,73,Moderate,1,Good,22,Good,0,Good,73,Moderate,7.0,-75.5,95,core,LOW,274.0
Colombia,Yarumal,73,Moderate,1,Good,22,Good,0,Good,73,Moderate,7.0306,-75.5905,95,core,LOW,274.0
Poland,Opoczno,73,Moderate,1,Good,31,Good,2,Good,73,Moderate,51.3772,20.2869,1,core,LOW,146.0
Italy,Rovigo,73,Moderate,1,Good,42,Good,2,Good,73,Moderate,45.0809,11.794,5,core,LOW,61.0
Ukraine,Zhytomyr,73,Moderate,1,Good,30,Good,1,Good,73,Moderate,50.25,28.6667,44,core,LOW,88.0
Israel,Dimona,73,Moderate,1,Good,57,Moderate,1,Good,73,Moderate,31.0667,35.0333,34,core,LOW,8.0
Philippines,Lupao,73,Moderate,1,Good,23,Good,2,Good,73,Moderate,15.8794,120.8994,0,core,LOW,83.0
Czechia,Svitavy,73,Moderate,1,Good,42,Good,0,Good,73,Moderate,49.756,16.4683,1,core,LOW,146.0
Azerbaijan,Buzovna,73,Moderate,1,Good,38,Good,0,Good,73,Moderate,40.5161,50.1164,30,core,LOW,3.0
United States of America,Arkadelphia,73,Moderate,1,Good,26,Good,3,Good,73,Moderate,34.1253,-93.0729,-1,noise,NOISE,-1.0
Philippines,Angat,73,Moderate,1,Good,23,Good,1,Good,73,Moderate,14.9281,121.0293,0,core,LOW,83.0
Romania,Arad,73,Moderate,1,Good,37,Good,1,Good,73,Moderate,46.175,21.3125,1,core,LOW,146.0
Romania,Arad,73,Moderate,1,Good,37,Good,1,Good,73,Moderate,31.25,35.2167,34,core,LOW,8.0
Italy,Treviso,73,Moderate,1,Good,41,Good,2,Good,73,Moderate,45.6722,12.2422,5,core,LOW,61.0
Mexico,Madera,73,Moderate,1,Good,18,Good,1,Good,73,Moderate,29.19,-108.1414,-1,noise,NOISE,-1.0
United States of America,Mountain Brook,73,Moderate,1,Good,33,Good,6,Good,73,Moderate,33.4871,-86.74,71,core,LOW,42.0
Romania,Gherla,73,Moderate,1,Good,42,Good,0,Good,73,Moderate,47.02,23.9,1,core,LOW,146.0
Mexico,Madera,73,Moderate,1,Good,18,Good,1,Good,73,Moderate,36.963,-120.0778,10,core,LOW,162.0
Spain,Manresa,73,Moderate,1,Good,25,Good,3,Good,73,Moderate,41.7264,1.8292,60,core,LOW,155.0
Thailand,Khlong Luang,73,Moderate,1,Good,27,Good,2,Good,73,Moderate,14.0647,100.6458,96,core,LOW,53.0
Japan,Hamamatsu,73,Moderate,1,Good,33,Good,6,Good,73,Moderate,34.7108,137.7275,97,core,LOW,191.0
Italy,Catania,73,Moderate,1,Good,33,Good,3,Good,73,Moderate,37.5,15.0903,5,core,LOW,61.0
Japan,Ebina,73,Moderate,1,Good,32,Good,9,Good,73,Moderate,35.4464,139.3908,97,core,LOW,191.0
Russian Federation,Novyy Urengoy,73,Moderate,1,Good,23,Good,0,Good,73,Moderate,66.0833,76.6833,-1,noise,NOISE,-1.0
United States of America,South Valley,73,Moderate,1,Good,28,Good,4,Good,73,Moderate,35.0093,-106.6819,98,core,LOW,39.0
United States of America,Williamstown,73,Moderate,1,Good,43,Good,4,Good,73,Moderate,39.6874,-74.9786,40,core,LOW,169.0
United States of America,Cimarron Hills,73,Moderate,1,Good,32,Good,2,Good,73,Moderate,38.8597,-104.6995,39,core,LOW,74.0
Romania,Santana,73,Moderate,1,Good,34,Good,1,Good,73,Moderate,-0.035,-51.175,-1,noise,NOISE,-1.0
Romania,Santana,73,Moderate,1,Good,34,Good,1,Good,73,Moderate,0.2583,6.7417,-1,noise,NOISE,-1.0
Romania,Santana,73,Moderate,1,Good,34,Good,1,Good,73,Moderate,-12.9828,-44.0508,-1,noise,NOISE,-1.0
Côte d'Ivoire,Bongouanou,73,Moderate,1,Good,15,Good,0,Good,73,Moderate,6.65,-4.2,99,core,LOW,60.0
Brazil,Sorocaba,73,Moderate,1,Good,31,Good,1,Good,73,Moderate,-23.5017,-47.4581,82,core,LOW,165.0
Italy,Villa San Giovanni,73,Moderate,1,Good,37,Good,2,Good,73,Moderate,38.2167,15.6333,5,core,LOW,61.0
India,Kombai,73,Moderate,1,Good,14,Good,4,Good,73,Moderate,10.6143,78.1212,59,core,LOW,62.0
United States of America,Collingswood,73,Moderate,1,Good,37,Good,5,Good,73,Moderate,39.916,-75.0758,40,core,LOW,169.0
Slovakia,Michalovce,73,Moderate,1,Good,43,Good,0,Good,73,Moderate,48.7553,21.9133,1,core,LOW,146.0
Cambodia,Ta Khmau,73,Moderate,1,Good,7,Good,5,Good,73,Moderate,11.4833,104.95,-1,noise,NOISE,-1.0
Albania,Tirana,73,Moderate,1,Good,45,Good,1,Good,73,Moderate,41.3289,19.8178,1,core,LOW,146.0
United States of America,Searcy,73,Moderate,1,Good,17,Good,7,Good,73,Moderate,35.2418,-91.7351,79,core,LOW,22.0
Czechia,Brno,73,Moderate,1,Good,46,Good,0,Good,73,Moderate,49.1925,16.6083,1,core,LOW,146.0
Russian Federation,Otradnoye,73,Moderate,1,Good,40,Good,5,Good,73,Moderate,59.7833,30.8167,100,core,LOW,270.0
Ukraine,Obukhiv,73,Moderate,1,Good,38,Good,2,Good,73,Moderate,50.1109,30.6269,44,core,LOW,88.0
China,Shizuishan,73,Moderate,1,Good,49,Good,0,Good,73,Moderate,39.2333,106.769,-1,noise,NOISE,-1.0
Sweden,Nybro,73,Moderate,1,Good,46,Good,0,Good,73,Moderate,56.7333,15.9,-1,noise,NOISE,-1.0
United States of America,Madisonville,73,Moderate,1,Good,28,Good,11,Good,73,Moderate,37.3409,-87.5034,-1,noise,NOISE,-1.0
India,Kombai,73,Moderate,1,Good,14,Good,4,Good,73,Moderate,9.8475,77.296,59,core,LOW,62.0
Germany,Bautzen,73,Moderate,1,Good,40,Good,2,Good,73,Moderate,51.1814,14.4242,1,core,LOW,146.0
United States of America,Collierville,73,Moderate,1,Good,44,Good,2,Good,73,Moderate,35.047,-89.6987,85,core,LOW,24.0
United States of America,Pittsburg,73,Moderate,1,Good,27,Good,4,Good,73,Moderate,37.4129,-94.6985,49,core,LOW,32.0
United States of America,Pittsburg,73,Moderate,1,Good,27,Good,4,Good,73,Moderate,38.0182,-121.8965,10,core,LOW,162.0
United States of America,Deming,72,Moderate,1,Good,26,Good,2,Good,72,Moderate,32.2631,-107.7525,-1,noise,NOISE,-1.0
France,Grasse,72,Moderate,1,Good,34,Good,3,Good,72,Moderate,43.6667,6.9167,5,core,LOW,61.0
United States of America,Goose Creek,72,Moderate,1,Good,30,Good,5,Good,72,Moderate,32.9927,-80.0055,101,core,LOW,84.0
United States of America,Wright,72,Moderate,1,Good,29,Good,2,Good,72,Moderate,30.4445,-86.6419,52,core,LOW,56.0
Poland,Wadowice,72,Moderate,1,Good,38,Good,2,Good,72,Moderate,49.8833,19.5,1,core,LOW,146.0
Germany,Hockenheim,72,Moderate,1,Good,36,Good,3,Good,72,Moderate,49.3181,8.5472,1,core,LOW,146.0
Czechia,Hranice,72,Moderate,1,Good,45,Good,0,Good,72,Moderate,49.5525,17.7683,1,core,LOW,146.0
Germany,Philippsburg,72,Moderate,1,Good,36,Good,2,Good,72,Moderate,49.2333,8.45,1,core,LOW,146.0
Hungary,Budakeszi,72,Moderate,1,Good,42,Good,2,Good,72,Moderate,47.5123,18.9281,1,core,LOW,146.0
United States of America,Aiken,72,Moderate,1,Good,20,Good,4,Good,72,Moderate,33.5303,-81.7271,102,core,LOW,129.0
France,Massy,72,Moderate,1,Good,44,Good,2,Good,72,Moderate,48.7309,2.2713,1,core,LOW,146.0
France,Massy,72,Moderate,1,Good,44,Good,2,Good,72,Moderate,41.0608,72.6328,-1,noise,NOISE,-1.0
United States of America,Gulfport,72,Moderate,1,Good,31,Good,2,Good,72,Moderate,30.4274,-89.0704,52,core,LOW,56.0
United States of America,Gulfport,72,Moderate,1,Good,31,Good,2,Good,72,Moderate,27.7463,-82.7099,62,core,LOW,123.0
India,Iluppur,72,Moderate,1,Good,35,Good,0,Good,72,Moderate,10.5137,78.6216,59,core,LOW,62.0
United States of America,Rolla,72,Moderate,1,Good,44,Good,0,Good,72,Moderate,37.9459,-91.7607,-1,noise,NOISE,-1.0
United States of America,Rolla,72,Moderate,1,Good,44,Good,0,Good,72,Moderate,13.8331,77.1,91,core,LOW,79.0
Italy,Zevio,72,Moderate,1,Good,36,Good,3,Good,72,Moderate,45.3728,11.1303,5,core,LOW,61.0
Turkey,Midyat,72,Moderate,1,Good,42,Good,1,Good,72,Moderate,37.4167,41.3697,51,core,LOW,18.0
Indonesia,Karanganyar,72,Moderate,1,Good,35,Good,0,Good,72,Moderate,-7.6033,110.9778,117,border,LOW,29.0
Republic of North Macedonia,Veles,72,Moderate,1,Good,45,Good,0,Good,72,Moderate,41.7153,21.7753,1,core,LOW,146.0
United States of America,Los Lunas,72,Moderate,1,Good,28,Good,3,Good,72,Moderate,34.8115,-106.7803,98,core,LOW,39.0
United States of America,Fountain,72,Moderate,1,Good,29,Good,3,Good,72,Moderate,38.6886,-104.6829,39,core,LOW,74.0
Germany,Albstadt,72,Moderate,1,Good,24,Good,3,Good,72,Moderate,48.2119,9.0239,1,core,LOW,146.0
Italy,Paese,72,Moderate,1,Good,41,Good,2,Good,72,Moderate,45.6667,12.15,5,core,LOW,61.0
Italy,Colleferro,72,Moderate,1,Good,37,Good,3,Good,72,Moderate,41.7333,13.0167,5,core,LOW,61.0
Indonesia,Langsa,72,Moderate,1,Good,38,Good,0,Good,72,Moderate,4.48,97.9633,-1,noise,NOISE,-1.0
United States of America,Paris,72,Moderate,1,Good,24,Good,3,Good,72,Moderate,48.8567,2.3522,1,core,LOW,146.0
United States of America,Paris,72,Moderate,1,Good,24,Good,3,Good,72,Moderate,33.6688,-95.546,-1,noise,NOISE,-1.0
United States of America,Paris,72,Moderate,1,Good,24,Good,3,Good,72,Moderate,36.2933,-88.3065,86,core,LOW,6.0
United States of America,Paris,72,Moderate,1,Good,24,Good,3,Good,72,Moderate,38.2016,-84.2718,55,core,LOW,92.0
United States of America,Paris,72,Moderate,1,Good,24,Good,3,Good,72,Moderate,39.6148,-87.6903,-1,noise,NOISE,-1.0
South Africa,Butterworth,72,Moderate,1,Good,26,Good,2,Good,72,Moderate,5.3992,100.3639,-1,noise,NOISE,-1.0
Iran (Islamic Republic of),Abhar,72,Moderate,1,Good,46,Good,0,Good,72,Moderate,36.1511,49.2244,-1,noise,NOISE,-1.0
Germany,Walldorf,72,Moderate,1,Good,37,Good,2,Good,72,Moderate,49.3,8.65,1,core,LOW,146.0
Czechia,Boskovice,72,Moderate,1,Good,45,Good,0,Good,72,Moderate,49.4875,16.66,1,core,LOW,146.0
Brazil,Piracicaba,72,Moderate,1,Good,29,Good,1,Good,72,Moderate,-22.7253,-47.6492,82,core,LOW,165.0
Venezuela (Bolivarian Republic of),Carora,72,Moderate,1,Good,17,Good,1,Good,72,Moderate,10.1692,-70.0783,190,border,LOW,143.0
Ukraine,Zhmerynka,72,Moderate,1,Good,38,Good,1,Good,72,Moderate,49.05,28.1,44,core,LOW,88.0
France,Chaville,72,Moderate,1,Good,43,Good,2,Good,72,Moderate,48.8086,2.1886,1,core,LOW,146.0
Italy,Piacenza,72,Moderate,1,Good,60,Moderate,0,Good,72,Moderate,45.05,9.7,5,core,LOW,61.0
France,Maurepas,72,Moderate,1,Good,40,Good,2,Good,72,Moderate,48.7628,1.9456,1,core,LOW,146.0
Brazil,Votorantim,72,Moderate,1,Good,30,Good,1,Good,72,Moderate,-23.5469,-47.4378,82,core,LOW,165.0
Italy,Latisana,72,Moderate,1,Good,40,Good,2,Good,72,Moderate,45.7833,13.1167,5,core,LOW,61.0
Germany,Lauchhammer,72,Moderate,1,Good,30,Good,4,Good,72,Moderate,51.5,13.8,1,core,LOW,146.0
France,Villejuif,72,Moderate,1,Good,44,Good,1,Good,72,Moderate,48.7919,2.3636,1,core,LOW,146.0
India,Chikodi,72,Moderate,1,Good,30,Good,1,Good,72,Moderate,16.43,74.6,-1,noise,NOISE,-1.0
United States of America,West Warwick,72,Moderate,1,Good,44,Good,5,Good,72,Moderate,41.6986,-71.5157,40,core,LOW,169.0
France,Garches,72,Moderate,1,Good,43,Good,2,Good,72,Moderate,48.8456,2.1869,1,core,LOW,146.0
Mexico,Delicias,72,Moderate,1,Good,33,Good,0,Good,72,Moderate,28.1931,-105.4717,87,core,LOW,78.0
Brazil,Vinhedo,72,Moderate,1,Good,30,Good,1,Good,72,Moderate,-23.03,-46.975,82,core,LOW,165.0
Philippines,Pili,72,Moderate,1,Good,20,Good,1,Good,72,Moderate,13.7177,123.7448,0,core,LOW,83.0
Philippines,Pili,72,Moderate,1,Good,20,Good,1,Good,72,Moderate,13.5561,123.2756,0,core,LOW,83.0
Philippines,Naga,72,Moderate,1,Good,20,Good,1,Good,72,Moderate,10.2167,123.75,3,core,LOW,113.0
Philippines,Naga,72,Moderate,1,Good,20,Good,1,Good,72,Moderate,7.7978,122.6944,-1,noise,NOISE,-1.0
United States of America,Daphne,72,Moderate,1,Good,29,Good,2,Good,72,Moderate,30.6263,-87.8816,52,core,LOW,56.0
Slovenia,Kranj,72,Moderate,1,Good,44,Good,0,Good,72,Moderate,46.2333,14.3667,1,core,LOW,146.0
Cuba,Guanajay,72,Moderate,1,Good,26,Good,3,Good,72,Moderate,22.9306,-82.6881,4,core,LOW,40.0
Kazakhstan,Zharkent,72,Moderate,1,Good,30,Good,0,Good,72,Moderate,44.1667,80.0,-1,noise,NOISE,-1.0
Turkey,Kadirli,72,Moderate,1,Good,41,Good,0,Good,72,Moderate,37.3697,36.1,103,core,LOW,104.0
Slovakia,Martin,71,Moderate,1,Good,39,Good,1,Good,71,Moderate,49.065,18.9219,1,core,LOW,146.0
Hungary,Sopron,71,Moderate,1,Good,34,Good,2,Good,71,Moderate,47.6849,16.5831,1,core,LOW,146.0
Brazil,Santo Amaro,71,Moderate,1,Good,5,Good,7,Good,71,Moderate,-12.5469,-38.7119,104,core,LOW,144.0
Serbia,Nova Pazova,71,Moderate,1,Good,33,Good,2,Good,71,Moderate,44.95,20.2167,1,core,LOW,146.0
United States of America,Westerville,71,Moderate,1,Good,44,Good,2,Good,71,Moderate,40.1241,-82.921,20,core,LOW,164.0
Egypt,Damietta,71,Moderate,1,Good,38,Good,1,Good,71,Moderate,31.4167,31.8214,-1,noise,NOISE,-1.0
Germany,Meschede,71,Moderate,1,Good,39,Good,4,Good,71,Moderate,51.35,8.2833,1,core,LOW,146.0
United States of America,Baker,71,Moderate,1,Good,13,Good,7,Good,71,Moderate,30.5832,-91.1582,52,core,LOW,56.0
United States of America,Horn Lake,71,Moderate,1,Good,60,Moderate,1,Good,71,Moderate,34.9512,-90.0501,85,core,LOW,24.0
United States of America,Bonham,71,Moderate,1,Good,22,Good,3,Good,71,Moderate,33.588,-96.1901,105,core,LOW,85.0
Botswana,Gaborone,71,Moderate,1,Good,9,Good,2,Good,71,Moderate,-24.6581,25.9122,106,core,LOW,163.0
Italy,Porcia,71,Moderate,1,Good,29,Good,3,Good,71,Moderate,45.9667,12.6167,5,core,LOW,61.0
Democratic Republic of the Congo,Lubumbashi,71,Moderate,1,Good,25,Good,1,Good,71,Moderate,-11.6647,27.4794,-1,noise,NOISE,-1.0
France,Le Pecq,71,Moderate,1,Good,43,Good,2,Good,71,Moderate,48.8967,2.1061,1,core,LOW,146.0
Philippines,Balagtas,71,Moderate,1,Good,24,Good,1,Good,71,Moderate,14.8145,120.9085,0,core,LOW,83.0
Germany,Kamenz,71,Moderate,1,Good,40,Good,1,Good,71,Moderate,51.2667,14.1,1,core,LOW,146.0
United States of America,Sapulpa,71,Moderate,1,Good,31,Good,2,Good,71,Moderate,36.0091,-96.1003,49,core,LOW,32.0
Syrian Arab Republic,Manbij,71,Moderate,1,Good,42,Good,0,Good,71,Moderate,36.5275,37.9553,6,core,LOW,12.0
India,Malavalli,71,Moderate,1,Good,19,Good,4,Good,71,Moderate,12.38,77.08,-1,noise,NOISE,-1.0
Philippines,Bustos,71,Moderate,1,Good,23,Good,1,Good,71,Moderate,14.95,120.9167,0,core,LOW,83.0
United States of America,Vestavia Hills,71,Moderate,1,Good,13,Good,10,Good,71,Moderate,33.4518,-86.7437,71,core,LOW,42.0
Russian Federation,Goyty,71,Moderate,1,Good,45,Good,1,Good,71,Moderate,43.1642,45.6228,92,core,LOW,187.0
Slovakia,Bardejov,71,Moderate,1,Good,42,Good,0,Good,71,Moderate,49.2933,21.2761,1,core,LOW,146.0
Sierra Leone,Lunsar,71,Moderate,1,Good,22,Good,0,Good,71,Moderate,8.6833,-12.5333,107,core,LOW,252.0
Brazil,Urbano Santos,71,Moderate,1,Good,11,Good,1,Good,71,Moderate,-3.2078,-43.4039,-1,noise,NOISE,-1.0
Benin,Cotonou,71,Moderate,1,Good,24,Good,0,Good,71,Moderate,6.3667,2.4333,-1,noise,NOISE,-1.0
Japan,Ninomiya,71,Moderate,1,Good,32,Good,7,Good,71,Moderate,35.2995,139.2555,97,core,LOW,191.0
Kenya,Machakos,71,Moderate,1,Good,17,Good,1,Good,71,Moderate,-1.5167,37.2667,-1,noise,NOISE,-1.0
United States of America,Joplin,71,Moderate,1,Good,26,Good,4,Good,71,Moderate,37.0757,-94.5018,49,core,LOW,32.0
Pakistan,Chitral,71,Moderate,1,Good,7,Good,1,Good,71,Moderate,35.8511,71.7889,-1,noise,NOISE,-1.0
Albania,Elbasan,71,Moderate,1,Good,44,Good,1,Good,71,Moderate,41.1111,20.0806,1,core,LOW,146.0
United States of America,Atlantic City,71,Moderate,1,Good,42,Good,4,Good,71,Moderate,39.3797,-74.4527,40,core,LOW,169.0
Philippines,Talibon,71,Moderate,1,Good,19,Good,0,Good,71,Moderate,10.1167,124.2833,3,core,LOW,113.0
India,Kodumudi,71,Moderate,1,Good,30,Good,0,Good,71,Moderate,11.0769,77.8876,59,core,LOW,62.0
Germany,Erfurt,71,Moderate,1,Good,31,Good,3,Good,71,Moderate,50.9833,11.0333,1,core,LOW,146.0
,Ocean City,71,Moderate,1,Good,40,Good,4,Good,71,Moderate,39.2681,-74.602,40,core,LOW,169.0
Honduras,Siguatepeque,71,Moderate,1,Good,5,Good,3,Good,71,Moderate,14.6,-87.8333,43,core,LOW,97.0
Croatia,Zadar,71,Moderate,1,Good,38,Good,1,Good,71,Moderate,44.1194,15.2319,-1,noise,NOISE,-1.0
Italy,Porto Tolle,71,Moderate,1,Good,46,Good,1,Good,71,Moderate,44.95,12.3167,5,core,LOW,61.0
Dominican Republic,Puebloviejo,71,Moderate,1,Good,16,Good,0,Good,71,Moderate,10.9972,-74.2875,9,core,LOW,17.0
United States of America,Olathe,71,Moderate,1,Good,28,Good,9,Good,71,Moderate,38.8833,-94.82,28,core,LOW,44.0
Serbia,Novi Pazar,71,Moderate,1,Good,43,Good,0,Good,71,Moderate,43.35,27.2,-1,noise,NOISE,-1.0
Serbia,Novi Pazar,71,Moderate,1,Good,43,Good,0,Good,71,Moderate,43.15,20.5167,1,core,LOW,146.0
United States of America,La Vergne,71,Moderate,1,Good,27,Good,5,Good,71,Moderate,36.02,-86.5586,72,core,LOW,90.0
Hungary,Kiskunmajsa,71,Moderate,1,Good,40,Good,1,Good,71,Moderate,46.4923,19.7368,1,core,LOW,146.0
Italy,Cave,71,Moderate,1,Good,45,Good,2,Good,71,Moderate,41.8167,12.9333,5,core,LOW,61.0
Colombia,Caicedonia,71,Moderate,1,Good,25,Good,1,Good,71,Moderate,4.3333,-75.8333,61,core,LOW,161.0
Japan,Numazu,71,Moderate,1,Good,36,Good,5,Good,71,Moderate,35.0956,138.8634,97,core,LOW,191.0
Serbia,Subotica,71,Moderate,1,Good,37,Good,1,Good,71,Moderate,46.1003,19.6656,1,core,LOW,146.0
Philippines,Gapan,71,Moderate,1,Good,26,Good,1,Good,71,Moderate,15.3122,120.9489,0,core,LOW,83.0
Romania,Jibou,71,Moderate,1,Good,24,Good,3,Good,71,Moderate,47.2667,23.25,1,core,LOW,146.0
Germany,Schwetzingen,71,Moderate,1,Good,37,Good,2,Good,71,Moderate,49.3833,8.5667,1,core,LOW,146.0
Romania,Satu Mare,71,Moderate,1,Good,38,Good,0,Good,71,Moderate,47.79,22.89,1,core,LOW,146.0
Brazil,Campo Largo,71,Moderate,1,Good,15,Good,2,Good,71,Moderate,-26.8,-60.8333,-1,noise,NOISE,-1.0
Brazil,Campo Largo,71,Moderate,1,Good,15,Good,2,Good,71,Moderate,-25.4589,-49.5278,108,core,LOW,230.0
United States of America,The Colony,71,Moderate,1,Good,17,Good,6,Good,71,Moderate,33.0925,-96.8976,105,core,LOW,85.0
Germany,Oftersheim,71,Moderate,1,Good,37,Good,2,Good,71,Moderate,49.3706,8.5847,1,core,LOW,146.0
United States of America,Cranston,71,Moderate,1,Good,44,Good,5,Good,71,Moderate,41.7658,-71.4858,40,core,LOW,169.0
Philippines,Guiguinto,71,Moderate,1,Good,24,Good,1,Good,71,Moderate,14.8333,120.8833,0,core,LOW,83.0
Italy,San Severino Marche,71,Moderate,1,Good,50,Good,0,Good,71,Moderate,43.2289,13.1771,5,core,LOW,61.0
Germany,Emmendingen,71,Moderate,1,Good,23,Good,5,Good,71,Moderate,48.1214,7.8492,1,core,LOW,146.0
Bosnia and Herzegovina,Trebinje,71,Moderate,1,Good,41,Good,0,Good,71,Moderate,42.7089,18.3217,-1,noise,NOISE,-1.0
Italy,Trecate,71,Moderate,1,Good,35,Good,4,Good,71,Moderate,45.4333,8.7333,5,core,LOW,61.0
Germany,Eppelheim,71,Moderate,1,Good,37,Good,2,Good,71,Moderate,49.4,8.6333,1,core,LOW,146.0
Slovakia,Martin,71,Moderate,1,Good,39,Good,1,Good,71,Moderate,36.3385,-88.8513,86,core,LOW,6.0
Germany,Suhl,70,Moderate,1,Good,38,Good,2,Good,70,Moderate,50.6106,10.6931,1,core,LOW,146.0
Germany,Cottbus,70,Moderate,1,Good,29,Good,4,Good,70,Moderate,51.7606,14.3342,1,core,LOW,146.0
Brazil,Planaltina,70,Moderate,1,Good,6,Good,5,Good,70,Moderate,-15.4528,-47.6139,-1,noise,NOISE,-1.0
Mexico,Tantoyuca,70,Moderate,1,Good,31,Good,3,Good,70,Moderate,21.35,-98.2333,109,core,LOW,45.0
Germany,Waldkirchen,70,Moderate,1,Good,50,Good,0,Good,70,Moderate,48.7305,13.6011,1,core,LOW,146.0
Ukraine,Buchach,70,Moderate,1,Good,37,Good,1,Good,70,Moderate,49.0647,25.3872,16,core,LOW,37.0
United States of America,Black Forest,70,Moderate,1,Good,19,Good,6,Good,70,Moderate,39.0608,-104.6752,39,core,LOW,74.0
Japan,Hakone,70,Moderate,1,Good,35,Good,5,Good,70,Moderate,35.1894,139.0247,97,core,LOW,191.0
Ukraine,Slavutych,70,Moderate,1,Good,35,Good,1,Good,70,Moderate,51.5206,30.7569,-1,noise,NOISE,-1.0
United States of America,Branford,70,Moderate,1,Good,46,Good,5,Good,70,Moderate,41.2843,-72.7979,40,core,LOW,169.0
United States of America,Eunice,70,Moderate,1,Good,19,Good,3,Good,70,Moderate,30.4904,-92.4191,65,core,LOW,76.0
Italy,Ravenna,70,Moderate,1,Good,49,Good,1,Good,70,Moderate,44.4161,12.2017,5,core,LOW,61.0
Italy,Ravenna,70,Moderate,1,Good,49,Good,1,Good,70,Moderate,41.1612,-81.2422,20,core,LOW,164.0
Germany,Dossenheim,70,Moderate,1,Good,38,Good,2,Good,70,Moderate,49.4492,8.6722,1,core,LOW,146.0
Austria,Salzburg,70,Moderate,1,Good,34,Good,1,Good,70,Moderate,47.8,13.045,1,core,LOW,146.0
United States of America,Marlton,70,Moderate,1,Good,45,Good,4,Good,70,Moderate,38.762,-76.7857,40,core,LOW,169.0
Russian Federation,Lyudinovo,70,Moderate,1,Good,23,Good,2,Good,70,Moderate,53.8667,34.4333,110,core,LOW,170.0
France,Montargis,70,Moderate,1,Good,41,Good,1,Good,70,Moderate,47.9969,2.7325,1,core,LOW,146.0
United States of America,Mayfield,70,Moderate,1,Good,50,Good,1,Good,70,Moderate,36.7371,-88.6447,86,core,LOW,6.0
Italy,Surbo,70,Moderate,1,Good,61,Moderate,1,Good,70,Moderate,40.4,18.1333,5,core,LOW,61.0
Italy,Acqui Terme,70,Moderate,1,Good,34,Good,3,Good,70,Moderate,44.6761,8.4686,5,core,LOW,61.0
Mexico,Calimaya,70,Moderate,1,Good,7,Good,9,Good,70,Moderate,19.1608,-99.6172,-1,noise,NOISE,-1.0
Italy,Racale,70,Moderate,1,Good,60,Moderate,1,Good,70,Moderate,39.9667,18.1,5,core,LOW,61.0
Philippines,San Pascual,70,Moderate,1,Good,25,Good,6,Good,70,Moderate,13.1286,122.9775,0,core,LOW,83.0
Romania,Deva,70,Moderate,1,Good,25,Good,4,Good,70,Moderate,45.8781,22.9144,1,core,LOW,146.0
Ghana,Sekondi,70,Moderate,1,Good,20,Good,0,Good,70,Moderate,4.9433,-1.704,45,core,LOW,65.0
Uganda,Kasese,70,Moderate,1,Good,18,Good,0,Good,70,Moderate,0.1867,30.0881,83,core,LOW,15.0
France,Le Chesnay,70,Moderate,1,Good,43,Good,2,Good,70,Moderate,48.8203,2.1303,1,core,LOW,146.0
Ukraine,Illintsi,70,Moderate,1,Good,42,Good,0,Good,70,Moderate,49.1,29.2,44,core,LOW,88.0
Slovenia,Jesenice,70,Moderate,1,Good,25,Good,2,Good,70,Moderate,46.4366,14.0602,1,core,LOW,146.0
Slovenia,Jesenice,70,Moderate,1,Good,25,Good,2,Good,70,Moderate,49.9683,14.5136,1,core,LOW,146.0
Hungary,Debrecen,70,Moderate,1,Good,31,Good,2,Good,70,Moderate,47.53,21.6392,1,core,LOW,146.0
Philippines,San Pascual,70,Moderate,1,Good,25,Good,6,Good,70,Moderate,13.8,121.0333,0,core,LOW,83.0
Italy,Fidenza,70,Moderate,1,Good,63,Moderate,0,Good,70,Moderate,44.8667,10.0667,5,core,LOW,61.0
United States of America,Vineland,70,Moderate,1,Good,42,Good,4,Good,70,Moderate,39.4653,-74.9981,40,core,LOW,169.0
France,Romainville,70,Moderate,1,Good,46,Good,1,Good,70,Moderate,48.884,2.435,1,core,LOW,146.0
Italy,Manerbio,70,Moderate,1,Good,38,Good,4,Good,70,Moderate,45.3667,10.1333,5,core,LOW,61.0
United States of America,Grandview,70,Moderate,1,Good,32,Good,9,Good,70,Moderate,38.8802,-94.5227,28,core,LOW,44.0
United States of America,Smyrna,70,Moderate,1,Good,28,Good,5,Good,70,Moderate,33.8633,-84.5168,111,core,LOW,114.0
Indonesia,Kefamenanu,70,Moderate,1,Good,16,Good,0,Good,70,Moderate,-9.4467,124.4781,-1,noise,NOISE,-1.0
United States of America,Smyrna,70,Moderate,1,Good,28,Good,5,Good,70,Moderate,35.9687,-86.5264,72,core,LOW,90.0
United States of America,Smyrna,70,Moderate,1,Good,28,Good,5,Good,70,Moderate,39.2935,-75.6083,40,core,LOW,169.0
United States of America,Marlton,70,Moderate,1,Good,45,Good,4,Good,70,Moderate,39.9014,-74.9294,40,core,LOW,169.0
Azerbaijan,Qazax,70,Moderate,1,Good,34,Good,0,Good,70,Moderate,41.0933,45.3661,19,core,LOW,142.0
United States of America,Haddonfield,70,Moderate,1,Good,38,Good,5,Good,70,Moderate,39.8955,-75.0346,40,core,LOW,169.0
Germany,Bretten,70,Moderate,1,Good,36,Good,2,Good,70,Moderate,49.0364,8.7061,1,core,LOW,146.0
Russian Federation,Kommunar,70,Moderate,1,Good,41,Good,6,Good,70,Moderate,59.6333,30.4,100,core,LOW,270.0
Chad,Bol,70,Moderate,1,Good,17,Good,0,Good,70,Moderate,13.46,14.74,-1,noise,NOISE,-1.0
Israel,Ramat Gan,70,Moderate,1,Good,45,Good,5,Good,70,Moderate,32.07,34.8236,34,core,LOW,8.0
United States of America,Grandview,70,Moderate,1,Good,32,Good,9,Good,70,Moderate,46.2443,-119.9092,112,core,LOW,308.0
Romania,Cugir,70,Moderate,1,Good,39,Good,0,Good,70,Moderate,45.8436,23.3636,1,core,LOW,146.0
Germany,Heidelberg,70,Moderate,1,Good,38,Good,2,Good,70,Moderate,49.4167,8.7167,1,core,LOW,146.0
Democratic Republic of the Congo,Tshela,70,Moderate,1,Good,22,Good,0,Good,70,Moderate,-4.9667,12.9333,-1,noise,NOISE,-1.0
United States of America,Wentzville,70,Moderate,1,Good,27,Good,7,Good,70,Moderate,38.8153,-90.8669,113,core,LOW,132.0
Poland,Bochnia,70,Moderate,1,Good,46,Good,0,Good,70,Moderate,49.9833,20.4333,1,core,LOW,146.0
Poland,Legnica,70,Moderate,1,Good,38,Good,1,Good,70,Moderate,51.2083,16.1603,1,core,LOW,146.0
Italy,Pescara,70,Moderate,1,Good,35,Good,5,Good,70,Moderate,42.4643,14.2142,5,core,LOW,61.0
Bulgaria,Etropole,70,Moderate,1,Good,41,Good,1,Good,70,Moderate,42.8333,24.0,1,core,LOW,146.0
Thailand,Phra Pradaeng,70,Moderate,1,Good,24,Good,1,Good,70,Moderate,13.6592,100.5331,96,core,LOW,53.0
France,Villeurbanne,70,Moderate,1,Good,54,Moderate,0,Good,70,Moderate,45.7667,4.8803,114,core,LOW,154.0
Iran (Islamic Republic of),Sonqor,70,Moderate,1,Good,54,Moderate,0,Good,70,Moderate,34.7836,47.6003,-1,noise,NOISE,-1.0
France,Genas,69,Moderate,1,Good,54,Moderate,0,Good,69,Moderate,45.7314,5.0022,114,core,LOW,154.0
France,Bondy,69,Moderate,1,Good,46,Good,1,Good,69,Moderate,48.9022,2.4828,1,core,LOW,146.0
Germany,Crimmitschau,69,Moderate,1,Good,37,Good,2,Good,69,Moderate,50.8181,12.3875,1,core,LOW,146.0
India,Kushtagi,69,Moderate,1,Good,32,Good,2,Good,69,Moderate,15.7562,76.1911,115,core,LOW,234.0
Slovakia,Detva,69,Moderate,1,Good,42,Good,0,Good,69,Moderate,48.5514,19.4183,1,core,LOW,146.0
Italy,Conegliano,69,Moderate,1,Good,39,Good,2,Good,69,Moderate,45.8868,12.2974,5,core,LOW,61.0
United States of America,Fort Payne,69,Moderate,1,Good,43,Good,3,Good,69,Moderate,34.4559,-85.6965,90,border,LOW,66.0
Panama,Sabanitas,69,Moderate,1,Good,22,Good,4,Good,69,Moderate,9.34,-79.8,116,core,LOW,34.0
El Salvador,Ciudad Arce,69,Moderate,1,Good,24,Good,1,Good,69,Moderate,13.8333,-89.4333,43,core,LOW,97.0
Germany,Herzberg,69,Moderate,1,Good,37,Good,3,Good,69,Moderate,51.6833,13.2333,1,core,LOW,146.0
Nicaragua,Corinto,69,Moderate,1,Good,14,Good,3,Good,69,Moderate,13.8167,-87.9667,43,core,LOW,97.0
Nicaragua,Corinto,69,Moderate,1,Good,14,Good,3,Good,69,Moderate,12.4819,-87.1742,53,core,LOW,217.0
Nicaragua,Corinto,69,Moderate,1,Good,14,Good,3,Good,69,Moderate,-18.3808,-44.4558,268,border,LOW,179.0
Nicaragua,Corinto,69,Moderate,1,Good,14,Good,3,Good,69,Moderate,3.1739,-76.2594,61,core,LOW,161.0
Italy,Loano,69,Moderate,1,Good,45,Good,2,Good,69,Moderate,44.1167,8.25,5,core,LOW,61.0
Germany,Bad Homburg,69,Moderate,1,Good,36,Good,3,Good,69,Moderate,50.2167,8.6,1,core,LOW,146.0
France,Vence,69,Moderate,1,Good,35,Good,3,Good,69,Moderate,43.7225,7.1119,5,core,LOW,61.0
Italy,Borgomanero,69,Moderate,1,Good,22,Good,5,Good,69,Moderate,45.7,8.4667,5,core,LOW,61.0
Italy,Pinerolo,69,Moderate,1,Good,47,Good,0,Good,69,Moderate,44.8873,7.3319,5,core,LOW,61.0
Germany,Oberursel,69,Moderate,1,Good,36,Good,3,Good,69,Moderate,50.2033,8.5769,1,core,LOW,146.0
United States of America,Marana,69,Moderate,1,Good,16,Good,8,Good,69,Moderate,32.4355,-111.1558,68,core,LOW,50.0
Germany,Wenden,69,Moderate,1,Good,34,Good,4,Good,69,Moderate,50.9667,7.8667,1,core,LOW,146.0
Republic of North Macedonia,Ilinden,69,Moderate,1,Good,45,Good,0,Good,69,Moderate,41.9945,21.58,1,core,LOW,146.0
France,Ostwald,69,Moderate,1,Good,61,Moderate,0,Good,69,Moderate,48.5511,7.7136,1,core,LOW,146.0
Slovakia,Sabinov,69,Moderate,1,Good,46,Good,0,Good,69,Moderate,49.1061,21.0856,1,core,LOW,146.0
,Chioggia,69,Moderate,1,Good,44,Good,1,Good,69,Moderate,45.2196,12.2789,5,core,LOW,61.0
Germany,Eichenzell,69,Moderate,1,Good,38,Good,2,Good,69,Moderate,50.4934,9.6961,1,core,LOW,146.0
Germany,Gengenbach,69,Moderate,1,Good,57,Moderate,0,Good,69,Moderate,48.4,8.0167,1,core,LOW,146.0
Italy,Busto Garolfo,69,Moderate,1,Good,36,Good,4,Good,69,Moderate,45.5478,8.8867,5,core,LOW,61.0
Italy,Palmi,69,Moderate,1,Good,47,Good,0,Good,69,Moderate,38.3667,15.85,5,core,LOW,61.0
Niger,Dosso,69,Moderate,1,Good,36,Good,0,Good,69,Moderate,13.05,3.2,-1,noise,NOISE,-1.0
Italy,Malnate,69,Moderate,1,Good,22,Good,6,Good,69,Moderate,45.8,8.8833,5,core,LOW,61.0
India,Kadiri,69,Moderate,1,Good,26,Good,4,Good,69,Moderate,14.12,78.17,-1,noise,NOISE,-1.0
Italy,Abano Terme,69,Moderate,1,Good,41,Good,2,Good,69,Moderate,45.3603,11.79,5,core,LOW,61.0
Romania,Lipova,69,Moderate,1,Good,39,Good,1,Good,69,Moderate,46.0917,21.6917,1,core,LOW,146.0
Germany,Zwiesel,69,Moderate,1,Good,49,Good,0,Good,69,Moderate,49.0167,13.2333,1,core,LOW,146.0
Poland,Bielawa,69,Moderate,1,Good,21,Good,4,Good,69,Moderate,50.7,16.6167,1,core,LOW,146.0
Uzbekistan,Nukus,69,Moderate,1,Good,28,Good,3,Good,69,Moderate,42.4667,59.6,-1,noise,NOISE,-1.0
Chad,Doba,69,Moderate,1,Good,16,Good,0,Good,69,Moderate,8.66,16.85,-1,noise,NOISE,-1.0
Indonesia,Surakarta,69,Moderate,1,Good,41,Good,1,Good,69,Moderate,-7.5667,110.8167,117,core,LOW,29.0
Italy,Lecce,69,Moderate,1,Good,58,Moderate,2,Good,69,Moderate,40.35,18.1667,5,core,LOW,61.0
United States of America,East Highland Park,69,Moderate,1,Good,38,Good,3,Good,69,Moderate,37.577,-77.3865,118,core,LOW,158.0
United States of America,Warrensburg,69,Moderate,1,Good,32,Good,5,Good,69,Moderate,38.7627,-93.726,28,core,LOW,44.0
Croatia,Vukovar,69,Moderate,1,Good,39,Good,1,Good,69,Moderate,45.3444,19.0025,1,core,LOW,146.0
India,Addanki,69,Moderate,1,Good,29,Good,0,Good,69,Moderate,15.811,79.9738,35,core,LOW,14.0
Serbia,Trstenik,69,Moderate,1,Good,44,Good,0,Good,69,Moderate,43.6186,20.9972,1,core,LOW,146.0
France,Puteaux,69,Moderate,1,Good,45,Good,2,Good,69,Moderate,48.885,2.2389,1,core,LOW,146.0
Germany,Meerane,69,Moderate,1,Good,38,Good,1,Good,69,Moderate,50.8519,12.4636,1,core,LOW,146.0
France,Suresnes,69,Moderate,1,Good,45,Good,2,Good,69,Moderate,48.87,2.22,1,core,LOW,146.0
Slovakia,Zvolen,69,Moderate,1,Good,42,Good,1,Good,69,Moderate,48.5706,19.1175,1,core,LOW,146.0
